cvegeo,longitude,latitude,stateName,munName,locName,habit,notHabit,destroyed,total,analfabet,margGrade,margIndex,dirtFloor,roomOccup,noPlumb,noElec,noToilet,noPrimary,noFridge
170040099,-98.8891666769,18.7830555538,Morelos,Ayala,Campo los Pilares,,,,-1,0,Alto,15.2508428274,0,11,100,62.5,0,40,87.5
170220037,-98.7161811538,18.8903896615,Morelos,Tetela del Volcán,Cacapola,,,,-1,4,Alto,8.3373438018,0,10.7272727273,0,0,0,24,80
070890730,-92.3088888923,15.1794444462,Chiapas,Tapachula,El Chorro,,,,2,14.8936170213,Alto,16.2486439634,37.5,19.2727272727,100,0,0,44.6808510638,50
150090107,-98.7874874154,19.1645739846,México,Amecameca,Rancho el Risco,,,,-1,0,Bajo,4.3801403246,0,9.0909090909,100,0,0,0,0
090020001,-99.1821069421,19.4853286143,Ciudad de México,Azcapotzalco,Azcapotzalco,,,,-1,1.6171282767,Muy bajo,2.6131116746,0.5982700838,7.6363636364,0.5152319867,0.0246184146,1.0378317731,7.5866619857,5.9736685249
090030001,-99.1503763519,19.3266672539,Ciudad de México,Coyoacán,Coyoacán,,,,-1,1.5366139511,Muy bajo,2.3767759475,0.8771827571,6.9090909091,0.3315019589,0.0271353186,1.2829441525,6.7853595828,5.6837476474
090040001,-99.2832034486,19.3612438575,Ciudad de México,Cuajimalpa de Morelos,Cuajimalpa de Morelos,,,,-1,2.2575996706,Muy bajo,3.2358928813,1.3823035047,7.8181818182,2.5679456435,0.0871362063,1.1289482173,9.7168918798,11.0934669876
090040010,-99.3236106308,19.3189517846,Ciudad de México,Cuajimalpa de Morelos,Cruz Blanca,,,,-1,6.3981042654,Alto,8.6060070408,16.9117647059,13.5454545455,7.3529411765,0,7.299270073,20.3931203931,42.3357664234
090040020,-99.3295059523,19.3210128496,Ciudad de México,Cuajimalpa de Morelos,San Lorenzo Acopilco,,,,-1,2.5759697948,Bajo,4.4153960826,1.7821054565,9.5454545455,3.6771465343,0.2019460253,1.7942145734,11.8204804046,21.1644086415
090040050,-99.3108590615,19.3334947077,Ciudad de México,Cuajimalpa de Morelos,La Venta,,,,-1,5.7742782152,Bajo,4.4371624587,0.8130081301,10.0909090909,1.6260162602,0,1.6260162602,12.4653739612,13.8211382114
090040054,-99.3480555538,19.2958333385,Ciudad de México,Cuajimalpa de Morelos,Puerto las Cruces (Monte las Cruces),,,,-1,3.8461538462,Medio,6.6765494675,5.5555555556,10.5454545455,23.1481481481,0.9259259259,5.5555555556,13.4868421053,38.8888888889
090040055,-99.3241666615,19.3463888923,Ciudad de México,Cuajimalpa de Morelos,Teopazulco,,,,-1,12.5,Alto,14.1656774439,0,18.1818181818,75,25,0,12.5,100
090040057,-99.3269322308,19.3524987692,Ciudad de México,Cuajimalpa de Morelos,Prolongación Constitución,,,,-1,9.0909090909,Alto,17.862224739,66.6666666667,40.9090909091,0,0,33.3333333333,30,0
090040058,-99.3283333385,19.3513888923,Ciudad de México,Cuajimalpa de Morelos,Paraje Río Borracho,,,,-1,8.8235294118,Medio,7.622955746,0,13.6363636364,45.4545454545,0,9.0909090909,17.6470588235,18.1818181818
090040060,-99.3019444462,19.3380555538,Ciudad de México,Cuajimalpa de Morelos,La Bolsa (El Encinal),,,,-1,0,Muy bajo,2.0137496185,0,7.3636363636,0,0,0,7.6923076923,0
090040062,-99.3441666769,19.3038888923,Ciudad de México,Cuajimalpa de Morelos,Rancho los Campesinos,,,,-1,0,Muy bajo,2.3356790935,0,8.3636363636,0,0,0,0,14.2857142857
090040063,-99.2952777692,19.3233333385,Ciudad de México,Cuajimalpa de Morelos,Santa Rosa,,,,-1,7.7348066298,Alto,11.0852459855,11.4035087719,13.4545454545,94.7368421053,3.5087719298,4.347826087,26.9121813031,40
090040065,-99.3186687538,19.3637209385,Ciudad de México,Cuajimalpa de Morelos,El Boji (San Jacinto),,,,-1,3.2258064516,Medio,7.0541807821,7.1428571429,13.6363636364,0,0,7.1428571429,13.3333333333,42.8571428571
090040066,-99.3205555538,19.3430555538,Ciudad de México,Cuajimalpa de Morelos,Rancho Santa Laura,,,,-1,0,Muy bajo,1.7235249671,0,7.1818181818,0,0,0,4.5454545455,0
090040070,-99.3036808923,19.3748828615,Ciudad de México,Cuajimalpa de Morelos,Punta Galicia,,,,-1,5.4901960784,Medio,8.1770443784,7.2916666667,12.8181818182,52.0833333333,1.0416666667,1.0416666667,17.0506912442,36.4583333333
090040073,-99.3053902769,19.3753852154,Ciudad de México,Cuajimalpa de Morelos,Santiago Yacuitlalpan,,,,-1,6.8181818182,Alto,9.533250709,11.7647058824,17.9090909091,0,0,5.8823529412,29.5454545455,35.2941176471
090040074,-99.3057686154,19.3681462923,Ciudad de México,Cuajimalpa de Morelos,Punta Ahuatenco,,,,-1,0,Alto,12.4532266576,16.6666666667,24.6363636364,0,0,21.4285714286,33.3333333333,50
090050001,-99.1158642093,19.5040652075,Ciudad de México,Gustavo A. Madero,Gustavo A. Madero,,,,-1,2.1492002632,Muy bajo,3.0933581204,0.9527007579,8.0909090909,0.5622932394,0.0581411973,0.8372705739,9.5843368121,9.080142374
090060001,-99.0943297968,19.3969118973,Ciudad de México,Iztacalco,Iztacalco,,,,-1,1.7673828632,Muy bajo,2.8519781669,0.7796843375,8,0.1880797062,0.035528887,0.902390301,8.7048719716,7.0892254401
090070001,-99.0568765599,19.3491853982,Ciudad de México,Iztapalapa,Iztapalapa,,,,-1,2.778050822,Muy bajo,3.6857541669,1.1800719675,9.0909090909,1.3875058089,0.07711838,0.6739364234,11.3172036775,11.7535570091
090080001,-99.2425943985,19.3106289004,Ciudad de México,La Magdalena Contreras,La Magdalena Contreras,,,,-1,2.5897826682,Muy bajo,3.5918613901,1.3897164206,8.3636363636,4.3132840142,0.0980014138,1.0727418066,11.5167202535,11.2741806555
090080075,-99.2742949231,19.2837906462,Ciudad de México,La Magdalena Contreras,Segundo Dinamo,,,,-1,6.25,Alto,11.5613193794,0,8.6363636364,83.3333333333,16.6666666667,0,18.75,100
090080083,-99.2484659538,19.2876808923,Ciudad de México,La Magdalena Contreras,El Gavillero,,,,-1,10.3773584906,Alto,12.333196699,21.4285714286,15.6363636364,100,0,2.8571428571,28.078817734,38.5714285714
090080088,-99.2441666769,19.2808333231,Ciudad de México,La Magdalena Contreras,Totolapa,,,,-1,5.3333333333,Alto,11.9427472646,17.2413793103,18,75.8620689655,3.4482758621,0,28.7671232877,44.8275862069
090080101,-99.2545772,19.2932361538,Ciudad de México,La Magdalena Contreras,Paraje el Rancho,,,,-1,5.8823529412,Alto,8.4679572754,0,12.2727272727,60,0,0,23.5294117647,40
090080104,-99.2497188923,19.2580324462,Ciudad de México,La Magdalena Contreras,Rancho Viejo,,,,-1,15,Alto,13.0077891359,0,15.3636363636,14.2857142857,28.5714285714,14.2857142857,21.0526315789,85.7142857143
090080105,-99.2579106,19.2901807385,Ciudad de México,La Magdalena Contreras,La Loma,,,,-1,0,Bajo,5.9976591302,0,12.7272727273,66.6666666667,0,0,0,33.3333333333
090080110,-99.2508302154,19.2912472615,Ciudad de México,La Magdalena Contreras,Paraje Chepecano,,,,-1,0,Alto,12.3471629094,0,13.6363636364,0,0,83.3333333333,10,100
090080112,-99.2489971846,19.2770131538,Ciudad de México,La Magdalena Contreras,Paraje Chichicaspa,,,,-1,1.4285714286,Alto,10.7482543439,19.0476190476,15.3636363636,85,10,4.7619047619,13.6363636364,47.619047619
090090001,-99.0254243791,19.1932305856,Ciudad de México,Milpa Alta,Villa Milpa Alta,,,,-1,4.8803969488,Bajo,5.5291514683,4.3873607638,10.0909090909,4.1354237673,0.2494896802,1.3333333333,15.8360503027,27.5028248588
090090011,-98.9926736099,19.2167598306,Ciudad de México,Milpa Alta,San Antonio Tecómitl,,,,-1,2.72918922,Muy bajo,3.9769726341,2.457337884,9.5454545455,6.6905615293,0.085338795,0.5962521295,10.1985506393,13.2708688245
090090015,-99.0688543148,19.2065919287,Ciudad de México,Milpa Alta,San Bartolomé Xicomulco,,,,-1,3.6738640026,Bajo,4.3478327254,3.1503150315,9.4545454545,5.2205220522,0.4500450045,1.7070979335,10.7382550336,17.1608265948
090090017,-99.0052624538,19.1947617483,Ciudad de México,Milpa Alta,San Francisco Tecoxpa,,,,-1,3.6286286286,Bajo,5.3546588965,3.102189781,10.1818181818,4.9689440994,0.365230095,3.4156976744,13.350751143,28.960755814
090090024,-99.072394446,19.1847828853,Ciudad de México,Milpa Alta,San Pablo Oztotepec,,,,-1,3.1646734131,Bajo,5.4303074998,2.8416779432,10.2727272727,15.7695428726,0.2704164413,3.616734143,11.8879112471,27.8812415655
090090029,-99.0498595593,19.201145723,Ciudad de México,Milpa Alta,San Pedro Atocpan,,,,-1,3.1198141387,Bajo,5.4963571641,4.7263681592,10.3636363636,6.5802592223,0.2488800398,1.0411502231,13.48354163,31.5319781854
090090033,-99.0935604255,19.1954211385,Ciudad de México,Milpa Alta,San Salvador Cuauhtenco,,,,-1,2.9710144928,Bajo,5.5057249822,3.9257455873,10.3636363636,30.6658521686,0.395256917,1.8490451652,11.115931027,23.0675962413
090090036,-98.9983481811,19.1753181492,Ciudad de México,Milpa Alta,Santa Ana Tlacotenco,,,,-1,5.7976756471,Bajo,5.9939121084,6.5109153581,10,3.7193251534,0.2678913127,3.4732824427,13.9931740614,34.465648855
090090037,-99.0038888923,19.2158333385,Ciudad de México,Milpa Alta,Cruztitla,,,,-1,4.1297935103,Medio,7.8351005536,6.6666666667,11.7272727273,83.3333333333,1.6666666667,0,14.1993957704,26.6666666667
090090039,-99.0729059385,19.1671372462,Ciudad de México,Milpa Alta,Atlimeya,,,,-1,25,Alto,17.2565177971,20,21,100,0,0,33.3333333333,80
090090041,-99.0454055231,19.2138015538,Ciudad de México,Milpa Alta,Atoctienco,,,,-1,1.2987012987,Bajo,4.8328630726,0,11,6.8965517241,0,0,16,20.6896551724
090090046,-99.0875008154,19.1838940615,Ciudad de México,Milpa Alta,Xoctonco,,,,-1,1.4285714286,Alto,9.5364570774,0,14.5454545455,100,1.3698630137,1.2987012987,9.900990099,58.4415584416
090090052,-99.0491666615,19.1841666615,Ciudad de México,Milpa Alta,La Herradura (Séptima Curva),,,,-1,1.6949152542,Alto,9.3682121683,16,12.8181818182,20,0,8,18.6440677966,68
090090054,-99.0665169385,19.1732480615,Ciudad de México,Milpa Alta,Zangahco,,,,-1,11.1111111111,Alto,14.5192697767,14.2857142857,14.8181818182,100,0,0,35.2941176471,85.7142857143
090090056,-99.0527777846,19.1905555538,Ciudad de México,Milpa Alta,Hueycotzingo,,,,-1,1.6393442623,Alto,8.4626474946,36,14.5454545455,8,4,0,8.7719298246,44
090090066,-98.9900132,19.1613837077,Ciudad de México,Milpa Alta,Cuauhtec (El Mirador Santa Ana Tlacotenco),,,,-1,0,Alto,11.9079227255,66.6666666667,11.9090909091,100,0,0,0,66.6666666667
090090067,-99.0365959077,19.1898761846,Ciudad de México,Milpa Alta,La Mora,,,,-1,14.2857142857,Alto,15.1513611918,33.3333333333,15.5454545455,100,0,66.6666666667,16.6666666667,33.3333333333
090090068,-99.0806839538,19.2043575231,Ciudad de México,Milpa Alta,Metenco,,,,-1,2.6845637584,Alto,10.9799825467,14.2857142857,12.2727272727,100,9.0909090909,17.5438596491,13.8888888889,50.8771929825
090090072,-99.0240161231,19.1735259231,Ciudad de México,Milpa Alta,Tamasquiti,,,,-1,25,Alto,14.1037149473,0,11.0909090909,100,0,0,25,100
090090074,-99.0087380462,19.1779701692,Ciudad de México,Milpa Alta,San Agustín el Alto,,,,-1,20,Alto,15.8621198721,0,12.7272727273,66.6666666667,0,33.3333333333,40,100
090090077,-99.0256828,19.1693594615,Ciudad de México,Milpa Alta,San Marcos,,,,-1,4.6511627907,Medio,8.1417041818,3.8461538462,14.0909090909,11.5384615385,0,19.2307692308,13.4146341463,46.1538461538
090090079,-99.0648502615,19.1785255692,Ciudad de México,Milpa Alta,Atlatlauco,,,,-1,7.1428571429,Alto,11.1619597722,11.1111111111,10.6363636364,66.6666666667,5.5555555556,5.5555555556,21.4285714286,77.7777777778
090090081,-99.0604057385,19.1835253231,Ciudad de México,Milpa Alta,Cuyucalco,,,,-1,3.7735849057,Bajo,5.9397693814,4.347826087,9.9090909091,21.7391304348,0,8.6956521739,14,26.0869565217
090090082,-99.0592946,19.1851918923,Ciudad de México,Milpa Alta,Iztauhagca,,,,-1,4.8780487805,Alto,8.8879422389,14.2857142857,12.5454545455,21.4285714286,0,17.6470588235,10,58.8235294118
090090083,-99.0392737077,19.1982039846,Ciudad de México,Milpa Alta,Tzotzomaco,,,,-1,0,Alto,10.1043465271,0,9.0909090909,100,0,33.3333333333,12.5,66.6666666667
090090084,-99.0776283231,19.1954691077,Ciudad de México,Milpa Alta,Tlatepexco,,,,-1,9.5238095238,Alto,12.8821057425,36.3636363636,13.8181818182,15.1515151515,12.1212121212,6.0606060606,19.2307692308,87.8787878788
090090088,-99.0502777846,19.1858333385,Ciudad de México,Milpa Alta,San Paocotitla,,,,-1,3.5087719298,Alto,9.3693567374,0,16,19.0476190476,0,0,17.8571428571,76.1904761905
090090090,-99.0409608923,19.1729703538,Ciudad de México,Milpa Alta,Tlacopac,,,,-1,5.5555555556,Alto,12.8264145113,72.7272727273,12.1818181818,27.2727272727,0,27.2727272727,14.7058823529,54.5454545455
090090095,-99.0084602923,19.1860253077,Ciudad de México,Milpa Alta,Mecatzintla,,,,-1,0,Medio,8.0636728371,0,12.3636363636,0,0,0,8.3333333333,100
090090098,-99.0363888923,19.2019444462,Ciudad de México,Milpa Alta,Tetexipezco,,,,-1,15.3846153846,Alto,10.6350281598,11.1111111111,13.0909090909,66.6666666667,0,0,24,44.4444444444
090090099,-98.9854042462,19.1585253846,Ciudad de México,Milpa Alta,Tetlicuili (El Encinal),,,,-1,8.8888888889,Medio,8.0254853836,0,10,5.8823529412,5.5555555556,5.5555555556,15.5555555556,66.6666666667
090090101,-99.060128,19.2013021692,Ciudad de México,Milpa Alta,Texcalahuitiel,,,,-1,0,Medio,7.8735566925,0,13.3636363636,100,0,0,11.1111111111,33.3333333333
090090103,-99.0528829692,19.1886045077,Ciudad de México,Milpa Alta,Tezompa,,,,-1,5.4794520548,Medio,7.7245286566,13.0434782609,11.2727272727,21.7391304348,0,0,18.8405797101,43.4782608696
090090104,-99.0708333231,19.1719444462,Ciudad de México,Milpa Alta,Colonia Teziuhtepec,,,,-1,3.5714285714,Alto,9.7355641411,0,12.0909090909,100,0,4.5454545455,12.962962963,63.6363636364
090090109,-99.0379304462,19.2029599692,Ciudad de México,Milpa Alta,Tlaxala,,,,-1,8.3333333333,Medio,7.7371619548,0,9.5454545455,90,0,9.0909090909,17.6470588235,18.1818181818
090090112,-99.0547222308,19.2058333231,Ciudad de México,Milpa Alta,Tetepanco,,,,-1,3.3898305085,Alto,9.5646933958,13.6363636364,14,100,0,0,17.8571428571,31.8181818182
090090113,-99.0609613846,19.2140792769,Ciudad de México,Milpa Alta,Cerrada Francisco I. Madero,,,,-1,2.8571428571,Bajo,4.7413024198,0,11.9090909091,25,0,0,11.7647058824,8.3333333333
090090115,-99.06,19.2083333385,Ciudad de México,Milpa Alta,San José,,,,-1,7.2916666667,Alto,11.0099265321,2.7777777778,13,91.6666666667,0,2.7777777778,23.4042553191,63.8888888889
090090116,-98.9894422154,19.1891635231,Ciudad de México,Milpa Alta,Hueytepetl,,,,-1,11.9047619048,Alto,9.1180118576,4,14,20,0,4,24.3902439024,44
090090117,-99.0695725538,19.1743591077,Ciudad de México,Milpa Alta,Coximalipa,,,,-1,1.5151515152,Medio,7.9706429197,4.347826087,10.6363636364,100,4.347826087,4.347826087,9.5238095238,34.7826086957
090090120,-99.0767949231,19.1763034308,Ciudad de México,Milpa Alta,Texacatipac,,,,-1,2.8846153846,Alto,11.0852543974,9.756097561,11.6363636364,100,4.8780487805,34.1463414634,8.2474226804,58.5365853659
090090123,-99.035,19.1897222308,Ciudad de México,Milpa Alta,La Mora III,,,,-1,4.7619047619,Medio,6.303402225,0,8.0909090909,0,0,12.5,23.8095238095,37.5
090090124,-99.0323829385,19.1912243231,Ciudad de México,Milpa Alta,La Mora Iv,,,,-1,37.5,Muy alto,20.352949528,33.3333333333,16.9090909091,33.3333333333,0,33.3333333333,50,100
090090125,-99.0338888923,19.1913888923,Ciudad de México,Milpa Alta,La Mora V,,,,-1,0,Alto,10.8827268317,0,16.0909090909,100,0,0,41.1764705882,33.3333333333
090090126,-99.0366666769,19.1972222308,Ciudad de México,Milpa Alta,Coyocalli,,,,-1,0,Medio,7.6679640233,0,14.5454545455,100,0,0,10,25
090090129,-99.0105555538,19.1808333385,Ciudad de México,Milpa Alta,Tlapalan,,,,-1,0,Bajo,5.719723942,0,11.1818181818,0,0,9.0909090909,4.5454545455,54.5454545455
090090131,-99.0358333385,19.1927777846,Ciudad de México,Milpa Alta,Texalco,,,,-1,10,Alto,10.9636751709,17.6470588235,17.7272727273,58.8235294118,0,0,24.4897959184,35.2941176471
090090134,-99.1012398769,19.1904693077,Ciudad de México,Milpa Alta,Quepilco,,,,-1,2.7027027027,Alto,8.6295836379,8.3333333333,11.8181818182,100,0,0,11.1111111111,41.6666666667
090090138,-98.9977972769,19.2072627385,Ciudad de México,Milpa Alta,Barranca Seca (Pozo Ocho),,,,-1,10,Medio,7.4496597444,6.5217391304,13,21.7391304348,0,0,23.5714285714,19.5652173913
090090139,-98.9919037692,19.1898651385,Ciudad de México,Milpa Alta,Teatlaco,,,,-1,33.3333333333,Alto,19.3370941557,11.1111111111,15.6363636364,77.7777777778,11.1111111111,33.3333333333,47.0588235294,88.8888888889
090090140,-98.9811111077,19.1969444462,Ciudad de México,Milpa Alta,Tlaloxtoc (Ejidos de Tecoxpa),,,,-1,7.1428571429,Alto,13.957185489,0,12.8181818182,100,40,0,15.3846153846,100
090090142,-99.0554057077,19.2090795538,Ciudad de México,Milpa Alta,Atuzanco,,,,-1,3.5714285714,Alto,10.4779244574,16.6666666667,10,100,8.3333333333,0,17.8571428571,58.3333333333
090090147,-99.0926286462,19.2104682923,Ciudad de México,Milpa Alta,El Potrero,,,,-1,0,Muy bajo,3.062089641,0,7.9090909091,0,0,0,7.1428571429,20
090090148,-99.0358333385,19.1997222308,Ciudad de México,Milpa Alta,Jalisco Uno,,,,-1,2.5641025641,Medio,7.1614178773,6.6666666667,10,20,6.6666666667,13.3333333333,10.2564102564,46.6666666667
090090151,-99.1012378462,19.1871331385,Ciudad de México,Milpa Alta,Miquixpa,,,,-1,4.347826087,Alto,16.0933759986,0,19.3636363636,100,66.6666666667,0,9.5238095238,100
090090152,-99.0332512922,19.1772267748,Ciudad de México,Milpa Alta,San Lorenzo Tlacoyucan,,,,-1,5.9176029963,Medio,7.0190641662,5.6989247312,10.2727272727,22.126745435,0.4291845494,2.7896995708,15.0452934226,44.0987124464
090090154,-99.0894444462,19.2091666615,Ciudad de México,Milpa Alta,Rinconada del Tioca,,,,-1,2.6315789474,Medio,7.2004420321,16.6666666667,11.9090909091,45.8333333333,4.1666666667,0,7.0422535211,33.3333333333
090090156,-99.0798505846,19.1946358,Ciudad de México,Milpa Alta,Temoclaluca,,,,-1,13.6363636364,Alto,12.9414039016,6.25,15.3636363636,87.5,12.5,0,30.2325581395,56.25
090090158,-99.0659614308,19.1985245231,Ciudad de México,Milpa Alta,Malacaxco,,,,-1,0,Medio,6.870496813,0,12.8181818182,75,0,8.3333333333,8.3333333333,25
090090159,-99.0634613538,19.1949122154,Ciudad de México,Milpa Alta,Cuatlixco,,,,-1,16.6666666667,Alto,15.6356347742,20,11.8181818182,100,0,0,38.8888888889,100
090090160,-99.0629058154,19.1965801846,Ciudad de México,Milpa Alta,Tlaloxtutienco (Montesinos),,,,-1,11.1111111111,Alto,11.9249904353,0,13.6363636364,100,0,16.6666666667,17.6470588235,66.6666666667
090090161,-99.0581834769,19.1876917692,Ciudad de México,Milpa Alta,Coametzu,,,,-1,16.6666666667,Alto,12.25838757,13.7931034483,14.9090909091,31.0344827586,0,3.4482758621,30.2325581395,68.9655172414
090090163,-99.0448621077,19.2178879692,Ciudad de México,Milpa Alta,Cuauhtunco,,,,-1,3.5928143713,Alto,8.4178554555,11.6666666667,12.0909090909,42.3728813559,1.6666666667,1.6666666667,19.8717948718,43.3333333333
090090167,-99.0372124154,19.2041719231,Ciudad de México,Milpa Alta,Tepetenco,,,,-1,7.9365079365,Alto,8.8831007398,9.0909090909,10.7272727273,84.0909090909,0,0,21.7391304348,31.8181818182
090090168,-99.0077688923,19.218959,Ciudad de México,Milpa Alta,San Isidro Cuatepec,,,,-1,5.6892778993,Alto,9.7535862112,2.9411764706,12.3636363636,96.4071856287,5.2941176471,5.8479532164,16.4785553047,44.4444444444
090090169,-99.0553919846,19.1847224462,Ciudad de México,Milpa Alta,Xaluis (Ixtahuaca),,,,-1,3,Bajo,5.6152432799,2.6315789474,10.1818181818,13.1578947368,0,2.6315789474,9.375,39.4736842105
090090171,-98.9944444462,19.2072222308,Ciudad de México,Milpa Alta,Tlacaxatl (Barrio Xochitepec),,,,-1,7.2847682119,Alto,9.883578427,10,11.8181818182,96,2,8,15.2777777778,42
090090172,-99.0537389231,19.1832462,Ciudad de México,Milpa Alta,Tlachachalipac,,,,-1,13.8888888889,Alto,11.6385052488,15.3846153846,14.0909090909,7.6923076923,0,15.3846153846,32.3529411765,61.5384615385
090090173,-99.0624233692,19.1793821846,Ciudad de México,Milpa Alta,Camino Real A Tlaltenami,,,,-1,2,Alto,9.1721393089,0,13.3636363636,88.2352941176,0,11.7647058824,13.6363636364,47.0588235294
090090174,-99.0197142154,19.1799937077,Ciudad de México,Milpa Alta,Mecalco,,,,-1,5.1724137931,Alto,9.614159954,20,10.0909090909,65,0,4.8780487805,26.3157894737,41.4634146341
090090176,-99.0162382,19.1813033077,Ciudad de México,Milpa Alta,Zacatonco,,,,-1,2.0408163265,Bajo,4.2547012821,0,11.5454545455,16.6666666667,0,0,10.4166666667,8.3333333333
090090177,-99.0148492923,19.1835254154,Ciudad de México,Milpa Alta,Carretera A Santa Ana,,,,-1,25.7575757576,Alto,12.9974348643,12.5,15,12.5,0,4,40,60
090090178,-99.0317940308,19.1701927385,Ciudad de México,Milpa Alta,Xali,,,,-1,0,Medio,6.5389114037,0,9.0909090909,20,0,0,10.7142857143,70
090090185,-99.1051288615,19.1963023231,Ciudad de México,Milpa Alta,Zacaxontlicpa,,,,-1,2.8571428571,Medio,7.2269064863,0,8.5454545455,100,0,0,6.0606060606,46.1538461538
090090187,-99.0791660462,19.2113915231,Ciudad de México,Milpa Alta,Santa Catarina (Piedra Blanca),,,,-1,4.1237113402,Bajo,5.6765427285,0,8.3636363636,87.8787878788,0,0,6.6666666667,17.6470588235
090090188,-99.0813888923,19.1941666769,Ciudad de México,Milpa Alta,Paraje Cuauhtetec,,,,-1,5.5555555556,Alto,9.7287219916,5,14.6363636364,42.5,0,2.5,21.3114754098,60
090090189,-99.0806839231,19.1929692308,Ciudad de México,Milpa Alta,Hueytlalpan,,,,-1,7.4074074074,Medio,6.4142543575,0,12.1818181818,16.6666666667,0,0,21.568627451,20.8333333333
090090191,-99.0580442462,19.2175935385,Ciudad de México,Milpa Alta,Tlatilpampa,,,,-1,8.3333333333,Alto,18.8146166675,33.3333333333,13.6363636364,100,66.6666666667,0,33.3333333333,100
090090192,-99.0570724,19.2079684923,Ciudad de México,Milpa Alta,Tetzmititla,,,,-1,4.5454545455,Alto,9.9757709977,16.6666666667,12.2727272727,100,0,0,13.6363636364,50
090090195,-99.0386111077,19.1913888923,Ciudad de México,Milpa Alta,Tlaxiomulco,,,,-1,15.7142857143,Alto,16.7698310219,14.2857142857,17.7272727273,100,19.0476190476,14.2857142857,31.884057971,80.9523809524
090090196,-99.0352004,19.1901656,Ciudad de México,Milpa Alta,Tepachac,,,,-1,0,Alto,8.7638239528,33.3333333333,15.5454545455,33.3333333333,0,0,14.2857142857,33.3333333333
090090197,-99.0353514769,19.1874558462,Ciudad de México,Milpa Alta,Chichauhtonco,,,,-1,22.2222222222,Alto,14.3465286174,33.3333333333,13,0,0,0,55.5555555556,66.6666666667
090090198,-99.0117936769,19.1818588462,Ciudad de México,Milpa Alta,Tecoloxtitla,,,,-1,1.6260162602,Bajo,5.3982866078,0,9.8181818182,9.756097561,0,0,17.2131147541,34.1463414634
090090199,-99.0033333385,19.1702777846,Ciudad de México,Milpa Alta,Tapalaco (Amacapultitla),,,,-1,0,Alto,12.5347776581,33.3333333333,11.3636363636,100,0,0,12.5,100
090090200,-99.0620724769,19.1996355846,Ciudad de México,Milpa Alta,Teacalco,,,,-1,3.5714285714,Bajo,5.718632899,0,10.8181818182,33.3333333333,0,0,22.2222222222,11.1111111111
090090201,-99.0617950769,19.2159494462,Ciudad de México,Milpa Alta,Iztlalco,,,,-1,20,Alto,16.2276297261,0,10.2727272727,100,33.3333333333,0,40,100
090090202,-99.0634614308,19.2143570462,Ciudad de México,Milpa Alta,Conzontlicpa,,,,-1,2.1276595745,Medio,6.3140974252,6.4516129032,13,12.9032258065,0,0,12.2222222222,35.4838709677
090090203,-99.0748505385,19.2124126769,Ciudad de México,Milpa Alta,Huepaltepec,,,,-1,12.8205128205,Alto,13.3533369537,5.8823529412,11.7272727273,100,23.5294117647,5.8823529412,28.2051282051,64.7058823529
090090204,-99.0842951538,19.2099127846,Ciudad de México,Milpa Alta,Mecatlán (Rancho el Refugio),,,,-1,3.5714285714,Medio,6.9414177791,0,10.9090909091,87.5,0,0,3.7037037037,37.5
090090205,-99.0494444462,19.2177777692,Ciudad de México,Milpa Alta,Tecupilco (Kilómetro 17.5),,,,-1,1.724137931,Bajo,5.0464785736,5.5555555556,10.6363636364,11.7647058824,0,5.5555555556,9.6153846154,22.2222222222
090090206,-99.0489962769,19.2185720462,Ciudad de México,Milpa Alta,Xaxalpa,,,,-1,1.5873015873,Medio,7.6583416158,0,12.0909090909,45.4545454545,4.5454545455,4.5454545455,12.2807017544,50
090090207,-99.0430555538,19.2172222308,Ciudad de México,Milpa Alta,Xaltepetitla,,,,-1,4.7619047619,Medio,8.0759751912,0,12,25,0,20,14.2857142857,50
090090208,-99.0526278769,19.2138015385,Ciudad de México,Milpa Alta,Tetecolok,,,,-1,5.1282051282,Alto,10.5205209043,17.6470588235,13.7272727273,88.2352941176,0,5.8823529412,20.5128205128,41.1764705882
090090209,-99.0542945692,19.2085240308,Ciudad de México,Milpa Alta,Tlaxicoapa (Mulotla),,,,-1,12.8205128205,Alto,13.0467994035,18.1818181818,13.5454545455,90.9090909091,9.0909090909,9.0909090909,15.3846153846,72.7272727273
090090210,-99.0032462923,19.2252715385,Ciudad de México,Milpa Alta,Santa Rosa,,,,-1,11.1111111111,Alto,11.3953555412,12.9032258065,12.5454545455,100,3.2258064516,0,22.2222222222,51.6129032258
090090211,-99.0030529538,19.2238853077,Ciudad de México,Milpa Alta,Olla de Piedra,,,,-1,4.347826087,Medio,8.0246154,11.1111111111,11.7272727273,100,0,0,4.7619047619,33.3333333333
090090213,-99.0056829846,19.2117671077,Ciudad de México,Milpa Alta,El Zapote (Techultepec),,,,-1,2.2935779817,Medio,7.6789159246,1.3698630137,13.4545454545,98.6301369863,1.3698630137,1.3698630137,9.4339622642,23.2876712329
090090214,-99.0027732,19.2094475538,Ciudad de México,Milpa Alta,Maxulco (Barrio Cruztitla),,,,-1,2.4630541872,Bajo,6.0275516933,1.3698630137,11.2727272727,54.7945205479,0,2.7397260274,15.0259067358,13.698630137
090090215,-99.0095714769,19.2082463692,Ciudad de México,Milpa Alta,El Pirul,,,,-1,15,Alto,12.4147867406,0,14.6363636364,83.3333333333,0,16.6666666667,31.5789473684,50
090090216,-99.0238882154,19.2030543077,Ciudad de México,Milpa Alta,Prolongación Avenida México Norte,,,,-1,13.9534883721,Alto,9.8387663149,8.3333333333,10.8181818182,41.6666666667,0,0,19.0476190476,66.6666666667
090090217,-98.9827743846,19.2033302308,Ciudad de México,Milpa Alta,Zacuaztitla,,,,-1,2.3622047244,Alto,10.3118857244,7.8947368421,13.1818181818,100,2.6315789474,7.8947368421,17.7419354839,50
090090219,-99.0942952923,19.1846362923,Ciudad de México,Milpa Alta,Omaxal,,,,-1,8.4112149533,Alto,11.3719008035,2.6315789474,14,97.4358974359,0,4.8780487805,22.3300970874,60.9756097561
090090220,-99.0948508462,19.1826919538,Ciudad de México,Milpa Alta,Mimiradorco,,,,-1,7.1428571429,Alto,11.5905983392,20,10.2727272727,100,0,0,28.5714285714,60
090090222,-99.0820728308,19.1849140923,Ciudad de México,Milpa Alta,Ahuatitla,,,,-1,2.8571428571,Alto,8.5679063408,7.6923076923,12.0909090909,76.9230769231,0,7.6923076923,14.7058823529,38.4615384615
090090223,-99.0790172,19.1779700154,Ciudad de México,Milpa Alta,Texacazintla (Xacalixpa),,,,-1,8.9552238806,Alto,12.3749976529,28,10.2727272727,100,0,4,23.4375,68
090090224,-99.0681836462,19.1768589846,Ciudad de México,Milpa Alta,Chichilecas,,,,-1,5.6179775281,Alto,9.4144608574,17.1428571429,12.1818181818,54.2857142857,0,0,10.3448275862,65.7142857143
090090226,-99.0595724154,19.1976912462,Ciudad de México,Milpa Alta,Calle Capulines,,,,-1,0,Alto,10.2077816232,50,8.1818181818,50,0,0,12.5,75
090090227,-99.0581834923,19.1946358615,Ciudad de México,Milpa Alta,Rancho los Capulines,,,,-1,9.0909090909,Alto,11.1108589883,9.0909090909,14.6363636364,72.7272727273,0,9.0909090909,21.2121212121,54.5454545455
090090228,-99.0573501538,19.1965802,Ciudad de México,Milpa Alta,Temoayan,,,,-1,0,Bajo,5.8837232692,0,11.4545454545,42.8571428571,0,0,4.347826087,42.8571428571
090090229,-99.0561483538,19.1928295077,Ciudad de México,Milpa Alta,Prolongación Xolotl,,,,-1,7.1428571429,Alto,10.6347535926,14.2857142857,11.4545454545,100,0,7.1428571429,23.0769230769,42.8571428571
090090232,-99.0330555538,19.1888888923,Ciudad de México,Milpa Alta,Meliaxco,,,,-1,4.7619047619,Alto,13.7360752211,0,21.4545454545,100,0,0,45,50
090090233,-99.0422282615,19.1738906154,Ciudad de México,Milpa Alta,Las Cruces Parte Alta (Tehuepanco),,,,-1,8.7301587302,Alto,8.3224069027,6.8181818182,11.3636363636,15.2173913043,0,4.347826087,20.6611570248,52.1739130435
090090234,-99.0338888923,19.1705555538,Ciudad de México,Milpa Alta,Cuapalipa,,,,-1,10,Alto,12.7334066493,14.2857142857,16.1818181818,28.5714285714,0,28.5714285714,25,71.4285714286
090090235,-99.0381830462,19.1701927231,Ciudad de México,Milpa Alta,Camino Tigustitla,,,,-1,0,Medio,7.6307549432,10,12,50,0,0,6.8965517241,57.1428571429
090090236,-99.0367941231,19.1676928615,Ciudad de México,Milpa Alta,Zacaticli,,,,-1,3.0303030303,Alto,10.9430629404,9.0909090909,13.6363636364,69.2307692308,0,0,27.2727272727,69.2307692308
090090237,-99.0309619538,19.1685428308,Ciudad de México,Milpa Alta,Tenopantitla,,,,-1,0,Alto,8.5705173428,14.2857142857,12.9090909091,42.8571428571,0,14.2857142857,15.7894736842,42.8571428571
090090239,-98.99,19.1966666769,Ciudad de México,Milpa Alta,Tecpallo,,,,-1,5.9701492537,Alto,10.9929335647,11.5384615385,14.7272727273,50,0,0,23.0769230769,73.0769230769
090090241,-98.9878299846,19.1746600923,Ciudad de México,Milpa Alta,Nuch Huaca (Techinantitle),,,,-1,1.9607843137,Alto,10.1044725766,5.5555555556,15.1818181818,11.1111111111,0,22.2222222222,16.3265306122,77.7777777778
090090242,-98.9873487231,19.1685262615,Ciudad de México,Milpa Alta,Cuacuahotlipa,,,,-1,8.9285714286,Alto,10.0428529243,6.6666666667,14.2727272727,11.1111111111,4.4444444444,4.4444444444,23.2142857143,66.6666666667
090090243,-98.9911726308,19.1668905538,Ciudad de México,Milpa Alta,Tlalcospa (Nacatulatlaco),,,,-1,0,Bajo,5.0852912353,0,11.8181818182,0,0,0,15.7894736842,28.5714285714
090090244,-98.9890154154,19.1654708615,Ciudad de México,Milpa Alta,Teshutla,,,,-1,0,Medio,6.9326722508,0,10.3636363636,0,0,0,0,100
090090245,-99.0952777692,19.2005555538,Ciudad de México,Milpa Alta,Citlalcuac (Rancho el Paraíso Perdido),,,,-1,3.7735849057,Alto,9.2410520694,5.2631578947,14.3636363636,63.1578947368,0,20,13.2075471698,40
090090246,-99.0876290923,19.2000711846,Ciudad de México,Milpa Alta,Prolongación Niños Héroes,,,,-1,4.9180327869,Alto,8.8061106322,10.447761194,11.2727272727,44.776119403,2.9850746269,2.9850746269,18.6440677966,52.2388059701
090090248,-99.0606835692,19.2104669231,Ciudad de México,Milpa Alta,Paraje Huicalco,,,,-1,6.3829787234,Medio,7.0124597109,0,11.4545454545,100,0,0,10.6382978723,12.5
090090250,-99.0597222308,19.1877777846,Ciudad de México,Milpa Alta,Tetexaloca,,,,-1,12.962962963,Alto,8.6535409025,0,11.0909090909,9.5238095238,0,0,29.4117647059,52.380952381
090090251,-99.0630555538,19.2005555538,Ciudad de México,Milpa Alta,Prolongación Justo Sierra,,,,-1,0,Medio,6.2797837567,0,12.8181818182,80,0,0,7.1428571429,20
090090252,-99.0623502308,19.1810240462,Ciudad de México,Milpa Alta,Acatlaco,,,,-1,4,Medio,6.6589085824,12.5,9.5454545455,25,0,12.5,8,37.5
090090253,-99.0983333385,19.1861111077,Ciudad de México,Milpa Alta,Xalmoyo,,,,-1,2.6315789474,Alto,10.9989261974,12.5,14.8181818182,100,6.25,6.25,16.6666666667,50
090090254,-99.1012399385,19.1918567538,Ciudad de México,Milpa Alta,Paraje Oluca,,,,-1,10.0977198697,Alto,11.4021761982,13.5135135135,13.0909090909,96.3963963964,1.8018018018,2.7027027027,19.9324324324,54.954954955
090090256,-99.0825,19.2002777846,Ciudad de México,Milpa Alta,La Joya,,,,-1,2.2222222222,Medio,7.0667985149,0,10.7272727273,100,0,0,13.3333333333,21.4285714286
090090257,-99.067906,19.2118557077,Ciudad de México,Milpa Alta,Camino Viejo A Santa Cruz,,,,-1,2.2727272727,Medio,7.1415087155,0,12.6363636364,22.2222222222,11.1111111111,0,9.3023255814,50
090090258,-99.0408333385,19.1869444462,Ciudad de México,Milpa Alta,Paraje la Cruz,,,,-1,4.5454545455,Alto,11.8703881251,27.7777777778,11.0909090909,61.5384615385,11.1111111111,11.1111111111,19.0476190476,72.2222222222
090090260,-99.0790173077,19.2060227231,Ciudad de México,Milpa Alta,Mixquiahuac,,,,-1,0,Muy bajo,3.6206982756,0,5.9090909091,100,0,0,0,0
090090261,-99.0837395846,19.2057448923,Ciudad de México,Milpa Alta,Zacamoli,,,,-1,0,Alto,8.214299581,0,10.6363636364,100,0,0,5.8823529412,62.5
090090264,-98.9934599385,19.1643584,Ciudad de México,Milpa Alta,Panuca (Kilómetro 27.5),,,,-1,21.0526315789,Alto,19.0860016591,87.5,9.5454545455,100,25,12.5,29.4117647059,75
090090265,-99.0061104615,19.1847229077,Ciudad de México,Milpa Alta,Tlaltepec,,,,-1,18.1818181818,Alto,12.0667592099,16.1290322581,13.1818181818,6.25,3.125,15.625,38.1578947368,53.125
090090266,-99.0126271846,19.2207442769,Ciudad de México,Milpa Alta,Las Palmas (Chimeo),,,,-1,7.6923076923,Alto,11.6408213676,15.3846153846,17,100,0,7.4074074074,16.4383561644,44.4444444444
090090268,-99.0140160308,19.2074116462,Ciudad de México,Milpa Alta,Aa Milpa Alta,,,,-1,11.5384615385,Alto,11.6149269076,0,15,11.1111111111,0,11.1111111111,20.8333333333,100
090090269,-98.9901266615,19.2124114462,Ciudad de México,Milpa Alta,El Cerrito,,,,-1,6.5217391304,Alto,9.6271110212,21.0526315789,13.5454545455,21.0526315789,0,15.7894736842,11.3636363636,57.8947368421
090090271,-99.0059205538,19.1668582,Ciudad de México,Milpa Alta,San Miguelito (Tecoxomayehuactitla),,,,-1,16.6666666667,Alto,20.0647870759,27.2727272727,15.1818181818,100,36.3636363636,72.7272727273,20,90.9090909091
090090273,-99.0448499692,19.2196332154,Ciudad de México,Milpa Alta,Texomulco,,,,-1,10,Alto,18.27004972,30,27.8181818182,90,10,0,34.4827586207,80
090090274,-98.9986935077,19.1643597846,Ciudad de México,Milpa Alta,Prolongación Benito Juárez,,,,-1,12.5,Alto,12.3253228961,0,15.5454545455,100,0,0,25,66.6666666667
090090275,-99.0440164923,19.1713037692,Ciudad de México,Milpa Alta,Tlalcocomoya,,,,-1,6.8965517241,Alto,9.690188735,14.2857142857,17.0909090909,10,0,0,17.2413793103,60
090090276,-99.0448498462,19.1715815231,Ciudad de México,Milpa Alta,Zozotlac,,,,-1,9.0909090909,Alto,10.0868788731,14.2857142857,11.4545454545,57.1428571429,7.1428571429,7.1428571429,18.75,50
090090277,-99.0476278,19.2193568154,Ciudad de México,Milpa Alta,Atoctenco (Tlalaxco),,,,-1,3.3333333333,Bajo,5.9913510998,8.3333333333,11.2727272727,17.8571428571,0,1.1904761905,10.2564102564,32.1428571429
090090278,-99.0336111077,19.1930555538,Ciudad de México,Milpa Alta,Cerrada Buenavista,,,,-1,8.6956521739,Alto,10.328626107,33.3333333333,13.1818181818,33.3333333333,0,0,30.4347826087,33.3333333333
090090280,-99.0576279692,19.2107461385,Ciudad de México,Milpa Alta,Ninguno,,,,-1,0,Bajo,5.6939341065,0,5.0909090909,100,0,0,16.6666666667,20
090090284,-99.0138888923,19.2058333385,Ciudad de México,Milpa Alta,Tetzompa,,,,-1,3.0303030303,Alto,8.4746815269,7.1428571429,14.5454545455,0,0,0,20,64.2857142857
090090285,-99.0891666615,19.1994444462,Ciudad de México,Milpa Alta,Prolongación Mina,,,,-1,11.6279069767,Alto,11.0977330174,11.1111111111,16.9090909091,37.037037037,0,0,25.8823529412,55.5555555556
090090288,-99.0704059538,19.1932470154,Ciudad de México,Milpa Alta,Tlacopanco,,,,-1,4.347826087,Medio,7.7571372843,0,15.3636363636,22.2222222222,0,0,20,38.8888888889
090090289,-99.0726282154,19.1940802923,Ciudad de México,Milpa Alta,Pitucaltitla,,,,-1,6.7567567568,Alto,8.9193228957,8.3333333333,18,0,0,0,26.0273972603,37.5
090090292,-98.9916666615,19.2077777846,Ciudad de México,Milpa Alta,Joyas Parte Alta,,,,-1,6.9518716578,Alto,10.5473388303,6.8493150685,13.1818181818,97.2602739726,5.4794520548,6.8493150685,18.3333333333,45.2054794521
090090293,-99.08,19.2083333385,Ciudad de México,Milpa Alta,Camino de la Amistad,,,,-1,0,Bajo,5.5886041285,16.6666666667,10.5454545455,66.6666666667,0,0,0,16.6666666667
090090295,-99.0825,19.1975,Ciudad de México,Milpa Alta,Prolongación Juan Escutia,,,,-1,9.0909090909,Alto,10.029703308,25,17.2727272727,100,0,0,18.1818181818,0
090090297,-99.0913888923,19.1841666615,Ciudad de México,Milpa Alta,San Antonio Cuilotepec,,,,-1,6.25,Alto,11.3558217891,1.7857142857,14.8181818182,100,3.4482758621,5.0847457627,22.9299363057,55.9322033898
090090299,-98.9880523077,19.1559385385,Ciudad de México,Milpa Alta,Tenochcalco,,,,-1,33.3333333333,Muy alto,31.2484467302,100,22.0909090909,100,20,100,58.3333333333,100
090090300,-98.9711047936,19.2090412255,Ciudad de México,Milpa Alta,San Nicolás Tetelco,,,,-1,2.9161603888,Bajo,4.4952263657,2.0238095238,10.0909090909,1.5513126492,0.1191895113,2.3781212842,10.9802271771,21.1652794293
090090301,-98.9699833538,19.2025630308,Ciudad de México,Milpa Alta,El Tejocote,,,,-1,5.5555555556,Medio,7.5447262294,0,13.4545454545,26.6666666667,0,0,19.4444444444,40
090090302,-98.9764507692,19.2066300769,Ciudad de México,Milpa Alta,Ejidos Tecoxpa,,,,-1,40,Muy alto,22.8879131593,33.3333333333,15.9090909091,100,33.3333333333,33.3333333333,60,66.6666666667
090090303,-98.9802777846,19.2094444462,Ciudad de México,Milpa Alta,Ninguno,,,,-1,4.6728971963,Medio,7.7189123568,0,14,29.7297297297,7.8947368421,7.8947368421,15.6862745098,31.5789473684
090090304,-98.9722222308,19.2058333385,Ciudad de México,Milpa Alta,Avenida el Cerro,,,,-1,7.1428571429,Alto,11.1494050635,3.7037037037,17.1818181818,18.5185185185,0,7.1428571429,26.4705882353,75
090090305,-99.0205399846,19.2031496308,Ciudad de México,Milpa Alta,Corrantitla,,,,-1,10.2040816327,Alto,9.9843598473,6.25,13.6363636364,6.25,0,12.5,25.2631578947,62.5
090090306,-99.0187143538,19.2046947077,Ciudad de México,Milpa Alta,Tepanoco,,,,-1,0,Bajo,5.2438776981,0,10.1818181818,100,0,0,7.6923076923,0
090090307,-99.0275412308,19.2027183231,Ciudad de México,Milpa Alta,Ninguno,,,,-1,11.7647058824,Alto,13.8193926089,37.5,14.8181818182,12.5,0,12.5,29.4117647059,87.5
090090310,-99.0305555538,19.2052777846,Ciudad de México,Milpa Alta,Paraje Santa Rosa Xalco,,,,-1,8.6956521739,Alto,11.2745994463,28.5714285714,9.4545454545,71.4285714286,0,14.2857142857,21.7391304348,57.1428571429
090090312,-99.0358831231,19.1976150154,Ciudad de México,Milpa Alta,Villa Hermosa,,,,-1,5.8823529412,Alto,10.1468056682,23.0769230769,11.1818181818,61.5384615385,7.6923076923,7.6923076923,9.0909090909,61.5384615385
090090313,-99.0322222154,19.1927777846,Ciudad de México,Milpa Alta,Ninguno,,,,-1,5,Bajo,4.3681172255,0,9.0909090909,0,0,12.5,11.1111111111,12.5
090090314,-99.0078863538,19.2025504769,Ciudad de México,Milpa Alta,Ninguno,,,,-1,13.7931034483,Bajo,5.9723804852,0,9.0909090909,5,0,0,18.5185185185,25
090090315,-99.0446538923,19.2054763692,Ciudad de México,Milpa Alta,Barrio Nochtitla,,,,-1,4.9668874172,Alto,8.188026751,7,13.0909090909,54,0,1.9607843137,21.6312056738,28.431372549
090090316,-99.0426335231,19.2119408923,Ciudad de México,Milpa Alta,Paraje Tehuizco,,,,-1,5.4545454545,Alto,9.4808402193,8.3333333333,12.6363636364,85,0,0,20.8860759494,41.6666666667
090090317,-99.0465233846,19.2103365385,Ciudad de México,Milpa Alta,Achayatipac,,,,-1,3.2258064516,Bajo,5.8614833314,0,11.8181818182,21.9512195122,0,0,15.5172413793,26.8292682927
090090318,-99.0404382308,19.2051667538,Ciudad de México,Milpa Alta,Ninguno,,,,-1,14.5161290323,Alto,9.7860383825,3.8461538462,10,100,0,0,33.3333333333,19.2307692308
090090320,-99.0379789538,19.1764292462,Ciudad de México,Milpa Alta,Ermita del Calvario,,,,-1,12,Alto,9.8181514209,0,10,50,0,0,21.7391304348,75
090090321,-99.0508235385,19.2111527846,Ciudad de México,Milpa Alta,La Virgen,,,,-1,17.1428571429,Alto,12.0105314335,8.3333333333,17.4545454545,83.3333333333,0,0,24.2424242424,41.6666666667
090090322,-99.0499402923,19.2086358462,Ciudad de México,Milpa Alta,Natlahuacaloca,,,,-1,0,Bajo,5.9501832172,0,11.6363636364,61.5384615385,0,0,15.3846153846,15.3846153846
090090323,-99.0527777846,19.2047222308,Ciudad de México,Milpa Alta,Huixtotlazintla,,,,-1,10.843373494,Alto,10.629189921,10.7142857143,12.3636363636,92.8571428571,0,3.5714285714,24.6753246753,39.2857142857
090090324,-99.0527653385,19.1943554923,Ciudad de México,Milpa Alta,Ninguno,,,,-1,4.0816326531,Alto,10.7551277497,42.8571428571,15.5454545455,7.1428571429,0,0,26.1904761905,50
090090325,-99.0511967385,19.1903540769,Ciudad de México,Milpa Alta,Ninguno,,,,-1,9.5238095238,Alto,11.5949143304,28.5714285714,17.9090909091,26.6666666667,0,0,24.3902439024,53.3333333333
090090327,-99.0461111077,19.1963888923,Ciudad de México,Milpa Alta,Ninguno,,,,-1,8.3333333333,Alto,9.264293784,0,12.7272727273,75,0,0,18.1818181818,50
090090328,-99.0185509538,19.1830383077,Ciudad de México,Milpa Alta,Ninguno,,,,-1,7.3170731707,Alto,8.9464494738,13.3333333333,11.2727272727,6.6666666667,0,0,30.7692307692,53.3333333333
090090329,-99.0163742308,19.1841936308,Ciudad de México,Milpa Alta,Ninguno,,,,-1,9.2592592593,Alto,9.5750424389,0,15.7272727273,4.7619047619,0,0,27.4509803922,61.9047619048
090090330,-99.02,19.1838888923,Ciudad de México,Milpa Alta,Ninguno,,,,-1,0,Bajo,4.2503470755,0,13.6363636364,12.5,0,0,13.0434782609,0
090090332,-99.0260682154,19.1812583538,Ciudad de México,Milpa Alta,Ninguno,,,,-1,4.1666666667,Alto,8.6826645356,10,12.0909090909,20,0,0,16.6666666667,70
090090333,-99.0283415538,19.1806875231,Ciudad de México,Milpa Alta,Tezontlipac,,,,-1,0,Medio,6.2054879267,0,14,100,0,0,8.3333333333,0
090090335,-99.0287768615,19.1700050154,Ciudad de México,Milpa Alta,Ninguno,,,,-1,9.0909090909,Alto,11.3040209547,0,18.1818181818,0,0,25,36.3636363636,50
090090337,-99.0279854154,19.1723783692,Ciudad de México,Milpa Alta,Ninguno,,,,-1,7.6923076923,Alto,13.0122486695,33.3333333333,16.3636363636,33.3333333333,0,0,15.3846153846,100
090090338,-99.0285498,19.1724410769,Ciudad de México,Milpa Alta,Ninguno,,,,-1,0,Alto,9.5645989845,33.3333333333,20.4545454545,0,0,0,0,66.6666666667
090090339,-99.0275708923,19.1741270308,Ciudad de México,Milpa Alta,Ninguno,,,,-1,7.1428571429,Medio,7.5882797231,16.6666666667,9.5454545455,16.6666666667,0,0,15.3846153846,50
090090340,-99.0272412308,19.1756168923,Ciudad de México,Milpa Alta,Ninguno,,,,-1,6.4516129032,Medio,6.910528131,0,10.5454545455,4.1666666667,0,12.5,18.0327868852,41.6666666667
090090341,-99.0996469538,19.1903326308,Ciudad de México,Milpa Alta,Paraje Texotitla,,,,-1,6.4516129032,Alto,10.8240663174,23.0769230769,11.2727272727,100,0,15.3846153846,23.3333333333,30.7692307692
090090342,-99.0958250923,19.1863167077,Ciudad de México,Milpa Alta,Paraje Cuatepec,,,,-1,6.0975609756,Alto,11.8653037351,4.347826087,17.9090909091,100,4.347826087,15.3846153846,22.5,38.4615384615
090090344,-99.0216817231,19.2034087846,Ciudad de México,Milpa Alta,Ocotitla,,,,-1,5.4054054054,Alto,11.0848372149,9.0909090909,12.0909090909,90.9090909091,0,9.0909090909,16.2162162162,72.7272727273
090090345,-99.0061227231,19.2233244769,Ciudad de México,Milpa Alta,Toltecas (Parte Alta),,,,-1,7.7777777778,Alto,11.5162146116,2.7027027027,14.4545454545,100,0,2.7027027027,23.2558139535,62.1621621622
090090346,-98.9911193538,19.1905724154,Ciudad de México,Milpa Alta,Palo Dulce,,,,-1,5.5555555556,Bajo,5.1401384655,0,11.1818181818,3.7037037037,0,0,14.0845070423,22.2222222222
090090347,-99.0019420923,19.1852791538,Ciudad de México,Milpa Alta,Xochiatlaco,,,,-1,20,Alto,14.1761997775,33.3333333333,18.1818181818,0,0,0,20,100
090090348,-99.0036111077,19.1827777846,Ciudad de México,Milpa Alta,Huacaltunco,,,,-1,6.25,Alto,10.0427703028,20,18.1818181818,0,0,0,6.25,80
090090349,-99.0616659231,19.2086095692,Ciudad de México,Milpa Alta,Ixotitla,,,,-1,2.9411764706,Alto,10.617451376,7.6923076923,14.7272727273,84.6153846154,0,0,20.5882352941,61.5384615385
090100001,-99.227677578,19.354535493,Ciudad de México,Álvaro Obregón,Álvaro Obregón,,,,-1,2.1608437563,Muy bajo,3.1054386744,1.1705197795,7.9090909091,1.224466501,0.0506829266,1.3606664237,9.8667188895,8.6536536793
090100002,-99.2723603692,19.3246297846,Ciudad de México,Álvaro Obregón,Cuauhtlamila,,,,-1,6.6666666667,Medio,6.8096948629,2.5641025641,10.5454545455,65.3846153846,0,1.2820512821,18.2203389831,14.1025641026
090100213,-99.2737448923,19.3015790615,Ciudad de México,Álvaro Obregón,Ampliación San Bernabé (Tenango),,,,-1,10,Alto,17.9393268573,25,22.7272727273,100,0,0,40,100
090100216,-99.2706892769,19.3010235385,Ciudad de México,Álvaro Obregón,El Ermitaño (Paraje el Chipil),,,,-1,0,Bajo,4.189563036,0,12,0,0,0,11.1111111111,16.6666666667
090110001,-99.0255307972,19.2842186988,Ciudad de México,Tláhuac,Tláhuac,,,,-1,2.3383582164,Muy bajo,3.5710533199,1.3351291976,9.0909090909,1.8988825506,0.1611750179,1.0773015667,9.8100520779,11.8114722258
090110011,-98.9609181981,19.2258065282,Ciudad de México,Tláhuac,San Andrés Mixquic,,,,-1,2.9423953585,Bajo,4.4724975611,1.9189765458,10.1818181818,3.2682060391,0.2131438721,0.744945016,10.5066666667,21.6388790351
090110021,-98.9987065833,19.2344704948,Ciudad de México,Tláhuac,San Juan Ixtayopan,,,,-1,2.9941136518,Muy bajo,3.8147401221,1.7267909044,9.1818181818,3.6295154939,0.2391118702,0.9877384196,11.0458974058,11.6995912807
090110024,-98.9736034236,19.2181326943,Ciudad de México,Tláhuac,San Nicolás Tetelco,,,,-1,2.3699802502,Muy bajo,4.0023705442,2.2727272727,9.5454545455,5.3465346535,0.2964426877,1.4792899408,8.9918256131,16.3708086785
090110026,-98.9674812036,19.3149833625,Ciudad de México,Tláhuac,Santa Catarina Yecahuitzotl,,,,-1,2.3848318768,Bajo,4.1970726324,1.4656616415,9.3636363636,20.6448911223,0.2092050209,0.8343763037,11.3265150359,10.9720483938
090110069,-98.9581816154,19.2210236,Ciudad de México,Tláhuac,Barrio San Miguel,,,,-1,5.3571428571,Medio,7.2292314996,7.8947368421,11.6363636364,16.2162162162,0,10.5263157895,10,44.7368421053
090110071,-98.9880479538,19.2833327077,Ciudad de México,Tláhuac,Tabla los Pozos,,,,-1,12.6315789474,Alto,10.278562139,16.2162162162,13.9090909091,18.9189189189,8.1081081081,10.8108108108,21.7391304348,43.2432432432
090110072,-98.9808117846,19.3086125538,Ciudad de México,Tláhuac,Mesita del Capulín,,,,-1,0,Alto,9.3295224339,0,13.3636363636,100,0,0,13.3333333333,60
090110076,-98.9642928462,19.2174126615,Ciudad de México,Tláhuac,Ojo de Agua,,,,-1,5.6603773585,Bajo,5.1469414247,0,12.3636363636,10.5263157895,0,0,15.3846153846,10.5263157895
090110081,-98.9670706769,19.2199125231,Ciudad de México,Tláhuac,San Miguel (Chinampas),,,,-1,4.1666666667,Medio,6.9350540665,5,10.9090909091,5,0,0,15.5555555556,55
090110086,-98.9558333385,19.2197222308,Ciudad de México,Tláhuac,Xila,,,,-1,1.4705882353,Medio,7.7673332664,8,12.7272727273,20,0,0,9.0909090909,68
090110094,-99.0104976615,19.2729398308,Ciudad de México,Tláhuac,Chinampa San Juan,,,,-1,5.5555555556,Medio,8.0534037473,28.5714285714,15.1818181818,14.2857142857,0,0,11.7647058824,28.5714285714
090110103,-98.9631817077,19.2196347692,Ciudad de México,Tláhuac,Paraje Xometitla,,,,-1,0,Bajo,5.0192486936,0,9.7272727273,29.6296296296,3.7037037037,0,6.4102564103,33.3333333333
090110104,-98.9569425231,19.2161063385,Ciudad de México,Tláhuac,San Ignacio de Loyola,,,,-1,7.822410148,Alto,10.7042454681,4.2168674699,13.8181818182,55.7575757576,3.6144578313,5.3892215569,24.2358078603,62.2754491018
090110108,-98.97,19.2252777846,Ciudad de México,Tláhuac,Paraje Ayecac,,,,-1,2.8571428571,Medio,6.8015915498,0,11.6363636364,7.1428571429,0,0,23.5294117647,42.8571428571
090110110,-99.0255542923,19.2866668154,Ciudad de México,Tláhuac,La Ciénega,,,,-1,6.1728395062,Alto,11.4073362094,15.625,17.0909090909,38.9473684211,2.0833333333,5.1020408163,18.9873417722,70.4081632653
090110111,-98.9684595846,19.2185237077,Ciudad de México,Tláhuac,Chinampas Tetelco,,,,-1,0,Medio,7.0132653606,0,15.6363636364,8.3333333333,0,0,12.9032258065,50
090110113,-98.9676113077,19.2129684308,Ciudad de México,Tláhuac,Lomas de Xocotlán,,,,-1,2.6315789474,Medio,6.6673676521,0,13.8181818182,3.8461538462,0,0,12.1621621622,50
090110116,-98.9697222154,19.3047222154,Ciudad de México,Tláhuac,Santa Catarina [Lienzo Charro],,,,-1,0,Medio,6.554781566,0,8.0909090909,0,0,25,33.3333333333,25
090110119,-99.0093886154,19.2332102923,Ciudad de México,Tláhuac,Tierra Blanca Parte Alta,,,,-1,1.6666666667,Medio,7.1073751568,4.7619047619,13.3636363636,66.6666666667,0,0,6.7796610169,33.3333333333
090110120,-99.0088882,19.2288871538,Ciudad de México,Tláhuac,Rancho las Siete Yuntas,,,,-1,8.904109589,Alto,9.663874387,5.3571428571,13.5454545455,94.6428571429,0,3.5714285714,19.8529411765,30.3571428571
090110124,-99.0190048154,19.3196314615,Ciudad de México,Tláhuac,Mina la Estancia,,,,-1,14.2857142857,Alto,18.979210568,50,28.5454545455,75,0,25,21.4285714286,75
090110126,-99.0267942308,19.3049066154,Ciudad de México,Tláhuac,Camino A Tlaltenco,,,,-1,11.1111111111,Alto,13.3671386975,25,19.1818181818,75,0,0,22.2222222222,62.5
090110128,-99.0075,19.2263888923,Ciudad de México,Tláhuac,Prolongación Peña Alta,,,,-1,6.7796610169,Alto,13.8619702855,33.3333333333,16.2727272727,100,16.6666666667,8.3333333333,18.6440677966,54.1666666667
090110129,-99.0054049231,19.2987958923,Ciudad de México,Tláhuac,Rancho los Pollitos,,,,-1,0,Muy bajo,2.8094624116,20,8.6363636364,0,0,0,0,0
090110134,-98.9851267692,19.2937975385,Ciudad de México,Tláhuac,Ninguno,,,,-1,7.6923076923,Alto,19.850350458,33.3333333333,12.3636363636,100,33.3333333333,57.1428571429,38.4615384615,100
090110136,-98.9985638462,19.2506296,Ciudad de México,Tláhuac,El Pato,,,,-1,7.4074074074,Alto,9.9221622398,13.2352941176,15.0909090909,7.3529411765,2.9411764706,10.2941176471,23.6559139785,52.9411764706
090110137,-98.9948490923,19.2601881538,Ciudad de México,Tláhuac,Ninguno,,,,-1,0,Alto,12.1762705414,16.6666666667,18.9090909091,50,0,0,33.3333333333,66.6666666667
090110140,-98.97611,19.3241656615,Ciudad de México,Tláhuac,El Paraíso (Mecoxtla),,,,-1,5.8988764045,Alto,9.875230721,10.8695652174,16.1818181818,100,0,0.7246376812,19.2419825073,22.4637681159
090110141,-98.9689252308,19.3212045077,Ciudad de México,Tláhuac,El Zapote (Colonia Ejidal),,,,-1,4.1666666667,Alto,12.0649310474,20,12.5454545455,100,20,10,13.0434782609,60
090110142,-98.9703172308,19.2929317077,Ciudad de México,Tláhuac,Ampliación San Miguel,,,,-1,5.6910569106,Medio,6.7342847961,13.6363636364,14.0909090909,25,0,0,15.5737704918,11.3636363636
090110145,-99.0241010154,19.3058554462,Ciudad de México,Tláhuac,Ninguno,,,,-1,0,Alto,9.7126662138,20,6.4545454545,100,20,0,25,40
090110147,-99.0164397385,19.302008,Ciudad de México,Tláhuac,Ninguno,,,,-1,3.7037037037,Alto,8.3631397374,11.1111111111,16.1818181818,33.3333333333,11.1111111111,0,11.1111111111,33.3333333333
090110149,-99.0113940769,19.2347194462,Ciudad de México,Tláhuac,Prolongación el Rosario,,,,-1,5.7142857143,Alto,16.7479816774,45.8333333333,14,95.8333333333,45.8333333333,12.5,27.9411764706,66.6666666667
090110150,-99.0124055231,19.2380648,Ciudad de México,Tláhuac,La Nopalera,,,,-1,0,Medio,7.939025169,0,14.2727272727,100,0,0,14.2857142857,25
090110151,-98.9944496769,19.2944457231,Ciudad de México,Tláhuac,Ninguno,,,,-1,0,Alto,9.913788894,20,18.1818181818,100,0,0,16.6666666667,20
090120001,-99.1792582668,19.2741063608,Ciudad de México,Tlalpan,Tlalpan,,,,-1,1.9734798545,Muy bajo,3.077687694,0.9930080088,7.6363636364,6.8516809492,0.065008832,1.0440668203,9.0960380394,8.5724759112
090120019,-99.174991436,19.1342146278,Ciudad de México,Tlalpan,Parres (El Guarda),,,,-1,5.7574063723,Medio,6.8161215067,1.6638935108,10,52.1594684385,0.1663893511,2.3217247098,16.9054441261,27.8606965174
090120026,-99.2049699034,19.2198013123,Ciudad de México,Tlalpan,San Miguel Ajusco,,,,-1,3.5957426407,Medio,6.6065553349,3.6142897014,10.5454545455,52.4402181513,1.144132831,1.1547022816,14.3168209036,27.2259321091
090120027,-99.149007089,19.20063337,Ciudad de México,Tlalpan,San Miguel Topilejo,,,,-1,4.7091174701,Medio,7.5871804706,4.228691872,11.5454545455,69.6949689687,0.3685180311,2.4186168127,16.0032059845,27.3107595764
090120103,-99.2330555538,19.1936111077,Ciudad de México,Tlalpan,Ampliación las Cruces,,,,-1,0,Bajo,4.7225273805,0,4.1818181818,100,0,0,9.0909090909,16.6666666667
090120112,-99.2101112,19.2044963231,Ciudad de México,Tlalpan,Acueducto,,,,-1,5.4945054945,Alto,8.4471435568,18.1818181818,15.1818181818,18.1818181818,0,3.0303030303,20,30.303030303
090120114,-99.2331869692,19.2082444462,Ciudad de México,Tlalpan,Cuamino,,,,-1,0,Bajo,5.7435367091,0,8.0909090909,100,0,0,0,33.3333333333
090120116,-99.1622222154,19.1547222308,Ciudad de México,Tlalpan,El Crucero (Sedeco),,,,-1,4,Alto,14.0390566624,0,16.3636363636,100,25,11.1111111111,26.0869565217,77.7777777778
090120118,-99.1955555538,19.1141666615,Ciudad de México,Tlalpan,Estación la Cima,,,,-1,0,Alto,8.4703294788,0,6.0909090909,100,0,0,0,100
090120123,-99.1701301231,19.1971354769,Ciudad de México,Tlalpan,Xacatixtla (Granja la Garriga),,,,-1,0,Medio,7.2089851332,0,12.7272727273,100,0,0,25,0
090120124,-99.2372218308,19.2463896154,Ciudad de México,Tlalpan,Colonia Héroes de 1910,,,,-1,4.6025104603,Medio,7.9901366385,9.2783505155,8.3636363636,91.7525773196,0,2.0618556701,14.0425531915,38.1443298969
090120128,-99.1575,19.1688888923,Ciudad de México,Tlalpan,Rancho las Raíces,,,,-1,6.25,Alto,14.8347982682,0,19.0909090909,100,25,0,33.3333333333,75
090120131,-99.1656854615,19.1479713692,Ciudad de México,Tlalpan,Kilómetro 37,,,,-1,7.6923076923,Alto,9.2934590502,0,12.2727272727,100,0,0,16,44.4444444444
090120132,-99.1604076615,19.1788031231,Ciudad de México,Tlalpan,Kilómetro 33.5,,,,-1,15.7894736842,Alto,17.4911910103,40,20.5454545455,100,0,0,39.4736842105,73.3333333333
090120135,-99.2394444462,19.2386111077,Ciudad de México,Tlalpan,Lomas de Tepemecatl,,,,-1,4.1142857143,Alto,11.7518119442,12.46105919,14.1818181818,63.125,19.937694704,2.4767801858,18.4579439252,72.1362229102
090120140,-99.2147254462,19.2041925385,Ciudad de México,Tlalpan,El Oyamel,,,,-1,0,Bajo,5.2946948052,0,9.6363636364,100,0,0,10,0
090120141,-99.2152777846,19.2063888769,Ciudad de México,Tlalpan,El Paraíso,,,,-1,0,Bajo,5.5317666436,0,7.9090909091,75,0,0,11.1111111111,25
090120144,-99.1377734615,19.1913887385,Ciudad de México,Tlalpan,Piedra Larga,,,,-1,9.1503267974,Alto,14.5938085833,18.0327868852,14.1818181818,100,11.4754098361,11.2903225806,34.2281879195,69.3548387097
090120159,-99.1742968769,19.2024129692,Ciudad de México,Tlalpan,Rancho Santísima Trinidad,,,,-1,0,Alto,14.4651842212,0,21.8181818182,100,0,0,28.5714285714,100
090120160,-99.1602777846,19.1544444462,Ciudad de México,Tlalpan,Seminario Nazareno,,,,-1,0,Muy bajo,0.6509503271,0,4.1818181818,0,0,0,0,0
090120161,-99.2081123692,19.2335448308,Ciudad de México,Tlalpan,El Pedregal,,,,-1,5.6497175141,Alto,13.5205328855,13.0434782609,14.4545454545,100,8.8235294118,1.4492753623,28.7356321839,79.7101449275
090120162,-99.1690189077,19.1640816462,Ciudad de México,Tlalpan,El Sifón,,,,-1,7.1428571429,Alto,16.4231267301,15.7894736842,20.2727272727,100,0,0,38.1818181818,100
090120168,-99.1469442154,19.1799998462,Ciudad de México,Tlalpan,Xalcuitongo (La Asunción),,,,-1,1.9607843137,Alto,11.7382871763,17.8571428571,16.3636363636,100,3.5714285714,3.5714285714,13,64.2857142857
090120170,-99.1347222308,19.1883333231,Ciudad de México,Tlalpan,Prolongación las Rosas,,,,-1,4.7058823529,Alto,11.2683439346,7.4074074074,16,100,0,7.4074074074,15,59.2592592593
090120171,-99.22,19.21,Ciudad de México,Tlalpan,La Trinidad,,,,-1,0,Bajo,4.1671869101,0,4.0909090909,100,0,0,12.5,0
090120175,-99.1577634923,19.1620638769,Ciudad de México,Tlalpan,Siete Ocotes,,,,-1,21.2121212121,Alto,15.7200088566,25,15,100,0,0,36.3636363636,75
090120179,-99.2255555538,19.2344444462,Ciudad de México,Tlalpan,El Charco,,,,-1,6.976744186,Alto,16.6467478434,20,14.8181818182,80,60,0,27.9069767442,93.3333333333
090120198,-99.2325223692,19.2112132462,Ciudad de México,Tlalpan,Cortijo Atonco,,,,-1,5.5555555556,Bajo,5.4770846214,0,7.7272727273,100,0,0,11.1111111111,0
090120201,-99.2269444462,19.2138888923,Ciudad de México,Tlalpan,Rancho los Compadres,,,,-1,0,Bajo,5.6250060028,0,6.0909090909,100,0,0,25,0
090120202,-99.2306909077,19.214336,Ciudad de México,Tlalpan,Rancho el Paraíso,,,,-1,11.7647058824,Alto,10.0217632548,0,13.0909090909,100,0,0,17.6470588235,44.4444444444
090120204,-99.2302777846,19.2072222154,Ciudad de México,Tlalpan,Rancho los Pioneros,,,,-1,14.2857142857,Alto,13.2309485686,0,14.5454545455,66.6666666667,0,33.3333333333,28.5714285714,66.6666666667
090120210,-99.1856860615,19.2338002,Ciudad de México,Tlalpan,El Arenal,,,,-1,5,Alto,10.0016320753,0,15.4545454545,83.3333333333,0,0,23.3333333333,45.8333333333
090120216,-99.1791675077,19.1955545846,Ciudad de México,Tlalpan,Cuanejaque,,,,-1,10.7913669065,Alto,13.5143219465,5.4545454545,12.1818181818,100,7.2727272727,18.1818181818,30.8823529412,70.9090909091
090120217,-99.1716105846,19.1884352769,Ciudad de México,Tlalpan,El Oyameyo,,,,-1,4.2372881356,Alto,9.2225085115,20,8.4545454545,97.7777777778,4.347826087,2.1739130435,17.094017094,39.1304347826
090120218,-99.1665189231,19.1918579846,Ciudad de México,Tlalpan,Parada Oyameyo (Kilómetro 31.5),,,,-1,1.6949152542,Bajo,5.8851214386,9.0909090909,8.4545454545,54.5454545455,0,0,5.1724137931,36.3636363636
090120220,-99.2434126154,19.2512948923,Ciudad de México,Tlalpan,Paraje la Campana (Kilómetro 12),,,,-1,10,Alto,10.3089704065,0,6.2727272727,100,20,0,22.2222222222,60
090120221,-99.2334647692,19.2318557538,Ciudad de México,Tlalpan,Paraje la Rufina,,,,-1,0,Alto,12.438540284,25,14.5454545455,0,75,0,8.3333333333,75
090120222,-99.2140773077,19.2343862615,Ciudad de México,Tlalpan,El Cráter,,,,-1,2.3255813953,Alto,17.7821960417,22.2222222222,16.4545454545,100,66.6666666667,11.1111111111,23.8095238095,94.4444444444
090120235,-99.2336111077,19.2283333385,Ciudad de México,Tlalpan,El Hilar,,,,-1,2.6315789474,Alto,19.8348560912,30,20.5454545455,100,100,3.3333333333,12,100
090120237,-99.2278888769,19.2170207692,Ciudad de México,Tlalpan,Xomulco (Oyamertonco),,,,-1,3.3333333333,Alto,10.9863890205,45.4545454545,13.0909090909,36.3636363636,0,0,17.8571428571,63.6363636364
090120251,-99.1756203385,19.2066811077,Ciudad de México,Tlalpan,Quinta Santa Rosa,,,,-1,25,Muy alto,29.5595685017,66.6666666667,21.1818181818,100,100,33.3333333333,62.5,100
090120253,-99.1817969846,19.1885247846,Ciudad de México,Tlalpan,Rancho San Patricio,,,,-1,10,Alto,18.5281865313,0,16.9090909091,100,100,0,20,100
090120254,-99.185,19.1875,Ciudad de México,Tlalpan,Barranquilla,,,,-1,20,Alto,16.6358116861,0,3.9090909091,100,50,50,40,75
090120261,-99.1447704923,19.1838625231,Ciudad de México,Tlalpan,Aguatenco,,,,-1,0,Alto,9.6791056407,0,23.4545454545,100,0,0,13.6363636364,16.6666666667
090120266,-99.1647222154,19.1888888923,Ciudad de México,Tlalpan,La Providencia,,,,-1,0,Alto,9.2631244191,12.5,16,100,0,0,9.5238095238,37.5
090120267,-99.1665206308,19.1870403692,Ciudad de México,Tlalpan,Finca Trancas,,,,-1,0,Muy bajo,3.7291899968,0,6.3636363636,100,0,0,0,0
090120269,-99.1634632923,19.1863027231,Ciudad de México,Tlalpan,Paraje Temazcaltitla (Kilómetro 32.2),,,,-1,7.1428571429,Medio,7.9444509147,0,10.5454545455,100,0,0,16.6666666667,25
090120270,-99.148463,19.1835251231,Ciudad de México,Tlalpan,Paraje de Apantenco,,,,-1,12.380952381,Alto,13.4456886887,11.9047619048,14.2727272727,97.619047619,4.7619047619,9.5238095238,30.0970873786,61.9047619048
090120272,-99.1594557692,19.2150635077,Ciudad de México,Tlalpan,Colonia Ocotla,,,,-1,17.6470588235,Alto,15.9589527904,12.5,15.1818181818,100,0,12.5,29.4117647059,100
090120275,-99.1566666615,19.2055555538,Ciudad de México,Tlalpan,Kilómetro 29.5,,,,-1,7.6923076923,Medio,7.8438346406,20,5.1818181818,100,0,20,8.3333333333,20
090120276,-99.1586111077,19.2038888923,Ciudad de México,Tlalpan,Kilómetro 30,,,,-1,6.25,Medio,7.416762428,3.2258064516,8.9090909091,100,0,0,19.2307692308,16.1290322581
090120277,-99.1660369231,19.2035931077,Ciudad de México,Tlalpan,Kilómetro 30.5,,,,-1,3.0534351145,Alto,10.0526681619,8.6956521739,12.6363636364,100,4.347826087,2.1739130435,15.625,52.1739130435
090120282,-99.1684634615,19.2115791692,Ciudad de México,Tlalpan,Ocotla Chico,,,,-1,5.5194805195,Alto,10.6799166957,3.6036036036,15.0909090909,98.1981981982,0.9009009009,1.8018018018,25.5813953488,42.3423423423
090120283,-99.2319444462,19.2127777846,Ciudad de México,Tlalpan,Paraje Atonco,,,,-1,23.0769230769,Alto,17.1304801087,66.6666666667,14.0909090909,100,0,0,30.7692307692,66.6666666667
090120290,-99.1955615846,19.2361108154,Ciudad de México,Tlalpan,La Herradura,,,,-1,7.6923076923,Alto,10.1975900685,5.376344086,14.8181818182,100,1.0752688172,2.1505376344,20.8955223881,33.3333333333
090120291,-99.1883333385,19.2352777846,Ciudad de México,Tlalpan,Carretera Al Ajusco,,,,-1,6.25,Alto,11.4233198566,0,24.2727272727,71.4285714286,0,0,18.75,42.8571428571
090120292,-99.2008333385,19.235,Ciudad de México,Tlalpan,El Pedregal,,,,-1,0,Alto,9.7428447703,28.5714285714,8.2727272727,100,0,0,7.1428571429,71.4285714286
090120295,-99.1667924615,19.1823574154,Ciudad de México,Tlalpan,Chahualixcatitla,,,,-1,0,Medio,6.2229716742,0,8.1818181818,100,0,0,0,42.8571428571
090120296,-99.1648521846,19.1724145538,Ciudad de México,Tlalpan,Rancho San José,,,,-1,9.0909090909,Alto,17.7921798844,0,18.1818181818,100,50,0,54.5454545455,75
090120299,-99.2159530154,19.2082680923,Ciudad de México,Tlalpan,Pedro Moreno,,,,-1,0,Muy bajo,4.1449761884,0,9.6363636364,85.7142857143,0,0,0,0
090120300,-99.2111140615,19.2072234462,Ciudad de México,Tlalpan,Colonia San Juan,,,,-1,3.8167938931,Medio,7.1922710858,5.7692307692,11.8181818182,30.7692307692,1.9230769231,1.9230769231,21.2598425197,28.8461538462
090120301,-99.2169436154,19.2052781385,Ciudad de México,Tlalpan,Colonia Aguayoto,,,,-1,3.431372549,Alto,9.7008629317,11.5384615385,13,100,0,1.2820512821,16.0804020101,43.5897435897
090120302,-99.1306849077,19.1976910923,Ciudad de México,Tlalpan,Los Encinos,,,,-1,9.375,Alto,14.8504544915,0,17.8181818182,100,0,9.0909090909,45.1612903226,72.7272727273
090120303,-99.1644444462,19.1880555538,Ciudad de México,Tlalpan,Kilómetro 32.1,,,,-1,2.9411764706,Bajo,4.7997243872,0,6.7272727273,100,0,0,8.8235294118,0
090120305,-99.2034050923,19.1961093077,Ciudad de México,Tlalpan,Lienzo Charro Pepe Castro,,,,-1,0,Medio,7.5091626496,0,7.2727272727,100,0,0,25,33.3333333333
090120306,-99.2152777692,19.1827777692,Ciudad de México,Tlalpan,Tres Vientos,,,,-1,0,Alto,8.3718851054,0,5.8181818182,100,0,0,20,66.6666666667
090120308,-99.2213406615,19.2675536308,Ciudad de México,Tlalpan,Kilómetro 7.5 (Circuito Ajusco),,,,-1,0,Alto,10.3624991825,0,21.8181818182,100,0,0,22.2222222222,25
090120310,-99.193876,19.2201943385,Ciudad de México,Tlalpan,Camino A la Venta,,,,-1,5,Alto,10.561348352,0,16,100,14.2857142857,0,25,28.5714285714
090120311,-99.1891666615,19.2375,Ciudad de México,Tlalpan,Paraje la Monera,,,,-1,7.4074074074,Alto,13.200051955,12.5,12.7272727273,88.8888888889,22.2222222222,0,18.5185185185,88.8888888889
090120328,-99.2287425385,19.2529644154,Ciudad de México,Tlalpan,Ejidos de San Andrés Totoltepec,,,,-1,6.0606060606,Alto,18.2672605127,25.8064516129,15.4545454545,100,56.25,15.625,30.1075268817,93.75
090120331,-99.2216666769,19.2322222154,Ciudad de México,Tlalpan,Cabaña del Xitle,,,,-1,8.1632653061,Alto,16.7140157227,25,13.7272727273,100,62.5,0,18.75,93.75
090120332,-99.2041666769,19.2363888923,Ciudad de México,Tlalpan,Prolongación Narciso Mendoza,,,,-1,3.7974683544,Alto,11.2016091367,20,11.5454545455,96.6666666667,10,6.6666666667,12.8205128205,63.3333333333
090120333,-99.205,19.1991666615,Ciudad de México,Tlalpan,Prolongación Acueducto,,,,-1,20,Alto,11.3975628557,16.6666666667,14.4545454545,66.6666666667,0,0,26.6666666667,33.3333333333
090120337,-99.2276040462,19.2176795846,Ciudad de México,Tlalpan,Rancho Yamel,,,,-1,0,Alto,8.4839761301,0,13,100,0,0,20,33.3333333333
090120340,-99.2273534154,19.1918564308,Ciudad de México,Tlalpan,Rancho Tres Hermanos,,,,-1,0,Alto,8.5530031892,0,7.3636363636,100,0,0,12.5,75
090120343,-99.2334646615,19.1968562154,Ciudad de México,Tlalpan,Rancho Valentina,,,,-1,6.25,Bajo,5.8394590785,0,11,0,0,0,37.5,0
090120346,-99.2056864462,19.2093556308,Ciudad de México,Tlalpan,El Cedral,,,,-1,4.1666666667,Medio,7.7668923829,12.5,11.3636363636,12.5,0,0,12.5,62.5
090120347,-99.2017870615,19.2095356462,Ciudad de México,Tlalpan,Las Calaveras,,,,-1,0,Muy bajo,3.3422317556,0,7.9090909091,50,0,0,6.6666666667,0
090120350,-99.1916666615,19.2047222308,Ciudad de México,Tlalpan,Los Tlapancos,,,,-1,6.1224489796,Alto,14.2821030245,28,15.2727272727,62.5,20,8,18.75,92
090120351,-99.1912417692,19.2332432769,Ciudad de México,Tlalpan,Carretera Al Ajusco II,,,,-1,4.347826087,Alto,10.972139084,7.6923076923,17.2727272727,96.1538461538,3.8461538462,0,18.8405797101,46.1538461538
090120352,-99.1550079538,19.2170172615,Ciudad de México,Tlalpan,Las Canteras,,,,-1,5.2631578947,Alto,12.0291871807,14.2857142857,15.2727272727,85.7142857143,14.2857142857,0,5.2631578947,85.7142857143
090120353,-99.1518649077,19.1809561077,Ciudad de México,Tlalpan,Camino Antiguo A Cuernavaca,,,,-1,14.2857142857,Alto,18.3462865353,16.6666666667,22,100,0,50,28.5714285714,83.3333333333
090120354,-99.2112420462,19.2038003231,Ciudad de México,Tlalpan,Cañada del Acueducto,,,,-1,5.5555555556,Medio,7.5315088886,13.3333333333,9.4545454545,93.3333333333,0,0,8.5714285714,26.6666666667
090120355,-99.2137420923,19.2063001692,Ciudad de México,Tlalpan,Acueducto 1Ra. Sección,,,,-1,4.5454545455,Alto,12.3207971042,25,18.1818181818,87.5,0,0,23.8095238095,50
090120358,-99.2130555538,19.2086111077,Ciudad de México,Tlalpan,El Arcoiris,,,,-1,5.1282051282,Bajo,5.9697126634,0,11.1818181818,15.3846153846,0,7.6923076923,21.0526315789,15.3846153846
090120360,-99.2147222308,19.2052777692,Ciudad de México,Tlalpan,Rancho Ahuayoto,,,,-1,14.2857142857,Alto,10.9464042059,0,13,100,0,0,33.3333333333,33.3333333333
090120371,-99.2032388923,19.2066938,Ciudad de México,Tlalpan,Ninguno,,,,-1,5.7471264368,Alto,12.5478930783,15.1515151515,14.5454545455,90.9090909091,3.0303030303,0,26.1904761905,72.7272727273
090120373,-99.1675,19.1844444462,Ciudad de México,Tlalpan,Cuailacastitla,,,,-1,18.1818181818,Alto,14.4029920327,20,9.0909090909,100,0,20,54.5454545455,40
090120374,-99.1708333385,19.1922222154,Ciudad de México,Tlalpan,Paraje Tlalmenelolpa,,,,-1,3.7037037037,Alto,10.6987520082,9.5238095238,12.0909090909,100,0,19.0476190476,31.3725490196,28.5714285714
090120376,-99.1611111077,19.1805555538,Ciudad de México,Tlalpan,Teteocotla,,,,-1,3.7037037037,Alto,11.2316432314,21.7391304348,12.4545454545,100,4.347826087,4.347826087,20,52.1739130435
090120378,-99.2447222154,19.2597222154,Ciudad de México,Tlalpan,Rancho Viejo,,,,-1,6.8965517241,Alto,14.5304130791,12.5,18.6363636364,37.5,12.5,12.5,34.4827586207,87.5
090120381,-99.1727777846,19.2138888923,Ciudad de México,Tlalpan,Ololica,,,,-1,2.6315789474,Alto,13.793377054,7.6923076923,18.9090909091,100,7.6923076923,7.6923076923,10.8108108108,100
090120383,-99.1669444462,19.1952777846,Ciudad de México,Tlalpan,Kilómetro 31,,,,-1,8,Alto,8.5796332246,0,11,100,0,0,24,22.2222222222
090120390,-99.1427777846,19.1705555538,Ciudad de México,Tlalpan,La Reja,,,,-1,0,Alto,13.8652344621,66.6666666667,5.1818181818,100,0,0,25,100
090120391,-99.1583333385,19.1847222154,Ciudad de México,Tlalpan,Popocotla,,,,-1,0,Alto,13.8760123052,28.5714285714,20,100,28.5714285714,0,15,57.1428571429
090120392,-99.1472222154,19.2166666615,Ciudad de México,Tlalpan,Colonia Cuauhtenco (Kilómetro 27),,,,-1,6.6666666667,Alto,9.0980797442,0,11.1818181818,100,0,0,23.0769230769,36.3636363636
090120393,-99.1516657077,19.2125004,Ciudad de México,Tlalpan,Kilómetro 28 Sur,,,,-1,5.6962025316,Alto,9.5348367102,7.2727272727,13.5454545455,100,1.8181818182,5.3571428571,15.8940397351,32.1428571429
090120395,-99.1434629385,19.2162998,Ciudad de México,Tlalpan,Rancho los Encinos,,,,-1,0,Medio,7.3983364752,0,13.0909090909,100,0,0,5.8823529412,33.3333333333
090120396,-99.1499996769,19.2094443077,Ciudad de México,Tlalpan,Tezontitla,,,,-1,4.0697674419,Alto,8.331413989,6.8571428571,11.4545454545,100,1.1428571429,5.7142857143,15.8634538153,21.7142857143
090130001,-99.0953505652,19.2512010552,Ciudad de México,Xochimilco,Xochimilco,,,,-1,2.6610856098,Muy bajo,3.9762185504,2.2458030417,8.9090909091,9.7800129523,0.2666936054,1.1885967118,10.1384028758,14.4964553271
090130091,-99.1238888923,19.2261111077,Ciudad de México,Xochimilco,Tepemimilco,,,,-1,0,Muy bajo,3.956229721,0,12.3636363636,25,0,0,9.0909090909,0
090130096,-99.0575046308,19.2372243846,Ciudad de México,Xochimilco,Paraje Izotitla,,,,-1,3.8095238095,Alto,11.2630935886,13.1578947368,13.7272727273,94.7368421053,7.8947368421,0,12.8712871287,71.0526315789
090130111,-99.079573,19.2632419385,Ciudad de México,Xochimilco,Paraje Lila (El Ladrillo),,,,-1,6.25,Alto,14.6625726562,50,19.8181818182,100,0,0,25,50
090130112,-99.0921293846,19.2653684154,Ciudad de México,Xochimilco,Paraje Texhuilo,,,,-1,0,Bajo,4.9682912005,6.6666666667,12.3636363636,6.6666666667,0,0,6.976744186,26.6666666667
090130113,-99.0583333385,19.2577777692,Ciudad de México,Xochimilco,Paraje Zacapa,,,,-1,0,Bajo,4.1904769621,0,11.7272727273,14.2857142857,0,0,0,28.5714285714
090130118,-99.0341666769,19.2455555538,Ciudad de México,Xochimilco,Barrio San Antonio (Cruz Monte),,,,-1,10.3225806452,Alto,11.4731382084,4.0816326531,16.1818181818,100,2.0408163265,8.1632653061,19.3548387097,44.8979591837
090130134,-99.0488888923,19.2341666615,Ciudad de México,Xochimilco,Ampliación Chalmita,,,,-1,7.3275862069,Alto,15.0581154403,5.1282051282,16.6363636364,100,31.1688311688,10.2564102564,22.1238938053,85.8974358974
090130136,-99.1311109077,19.2319454,Ciudad de México,Xochimilco,Tepexomulco,,,,-1,2.9914529915,Alto,8.2950558729,2.2988505747,13.3636363636,59.7701149425,1.1494252874,3.4482758621,13.7168141593,45.9770114943
090130137,-99.1022222308,19.2041666769,Ciudad de México,Xochimilco,Tlachiultepec de Ahuayucan (Las Malvinas),,,,-1,6.0869565217,Alto,9.0405878494,2.8571428571,12.7272727273,100,0,5.5555555556,16.6666666667,30.5555555556
090130138,-99.1422589077,19.2347536615,Ciudad de México,Xochimilco,Tepetitla (Tlacoxpan),,,,-1,2.4390243902,Alto,8.5001929441,6.6666666667,11.8181818182,100,0,0,7.8947368421,46.6666666667
090130139,-99.0777777846,19.2422222308,Ciudad de México,Xochimilco,Tlacualleli de las Flores (El Calvario),,,,-1,6.25,Alto,14.3763967212,54.5454545455,20.5454545455,100,0,0,18.75,45.4545454545
090130140,-99.1152777692,19.2241666615,Ciudad de México,Xochimilco,Tlaltepetla (Tehuistitla),,,,-1,4.5454545455,Alto,8.5626165402,0,11.9090909091,96.4285714286,7.1428571429,0,18.1818181818,28.5714285714
090130143,-99.1438888923,19.2255555538,Ciudad de México,Xochimilco,Tlalatlaco,,,,-1,3.825136612,Alto,12.6596683021,6.1538461538,14.9090909091,100,9.2307692308,4.6153846154,16.4835164835,87.6923076923
090130146,-99.0773234462,19.2360967692,Ciudad de México,Xochimilco,Tlatzala (Cuayuca),,,,-1,3.6363636364,Alto,10.8543517062,2.5,15.1818181818,100,2.6315789474,0,28.4403669725,45
090130151,-99.1522853538,19.2259108769,Ciudad de México,Xochimilco,Tepuente,,,,-1,0,Alto,9.4585062933,3.3333333333,17.8181818182,100,0,0,14.1176470588,35.4838709677
090130153,-99.1116666615,19.2186111077,Ciudad de México,Xochimilco,Ahuatitla,,,,-1,0,Bajo,4.256180551,0,11.8181818182,0,0,0,7.4074074074,25
090130157,-99.0852777846,19.2330555538,Ciudad de México,Xochimilco,Tipipili,,,,-1,7.7380952381,Alto,15.5114223833,18.1818181818,21.5454545455,94.2307692308,12.7272727273,7.2727272727,27.7108433735,70.9090909091
090130160,-99.1025000923,19.2025000769,Ciudad de México,Xochimilco,Paraje Tochuca (San Salvador),,,,-1,5.4545454545,Medio,7.2615012136,0,10.1818181818,100,0,12.5,14.5631067961,7.5
090130161,-99.1150314154,19.2301867846,Ciudad de México,Xochimilco,Tlacalteca,,,,-1,3.2258064516,Bajo,5.2810006978,0,14.4545454545,11.1111111111,0,0,6.4516129032,22.2222222222
090130162,-99.1138836154,19.2175056154,Ciudad de México,Xochimilco,Pepelaxtla,,,,-1,6,Medio,7.1061767743,9.6774193548,13.8181818182,3.2258064516,0,0,19.7916666667,29.0322580645
090130163,-99.1069417231,19.2177796154,Ciudad de México,Xochimilco,Tecacalango,,,,-1,4.2553191489,Medio,6.5684639177,7.5757575758,9.5454545455,63.6363636364,0,3.0303030303,12.9213483146,21.2121212121
090130165,-99.125,19.1944444462,Ciudad de México,Xochimilco,Cacalco (Tepextenco),,,,-1,4.5454545455,Alto,11.1381858255,20,18.9090909091,20,0,0,13.6363636364,80
090130169,-99.0861111077,19.2636111077,Ciudad de México,Xochimilco,Apatlaco,,,,-1,9.6153846154,Alto,12.462674999,15,14.9090909091,95,0,5,21.568627451,65
090130177,-99.1408469692,19.2236251538,Ciudad de México,Xochimilco,Kilómetro 26,,,,-1,0,Alto,15.0691079561,0,9.0909090909,100,0,0,75,100
090130178,-99.0722222154,19.2616666615,Ciudad de México,Xochimilco,Puente de Urrutia (Tlapizatil),,,,-1,6.5789473684,Alto,9.1525373624,20.8333333333,12,47.8260869565,0,0,18.0555555556,45.8333333333
090130180,-99.1356370308,19.2293033077,Ciudad de México,Xochimilco,Tepexomulco las Rocas,,,,-1,2.4390243902,Alto,11.4868159921,5.8823529412,13.2727272727,100,0,5.8823529412,13.1578947368,88.2352941176
090130181,-99.1416679231,19.2280574462,Ciudad de México,Xochimilco,Ocotitla Tepachuxiac,,,,-1,4.347826087,Alto,12.3189824661,0,15.8181818182,100,8,0,21.2121212121,80
090130184,-99.1097222154,19.2188888923,Ciudad de México,Xochimilco,Paraje Atocle,,,,-1,0,Muy bajo,2.8506726893,0,9.0909090909,0,0,0,8.5106382979,7.5
090130185,-99.1183333385,19.2027777846,Ciudad de México,Xochimilco,Paraje los Tejocotes,,,,-1,2.7777777778,Alto,8.7564827527,0,13.3636363636,100,0,0,11.4285714286,45.4545454545
090130186,-99.1144444462,19.2005555538,Ciudad de México,Xochimilco,Granja R.R. (Los Ciruelos),,,,-1,23.0769230769,Alto,11.1844982197,0,7.0909090909,100,0,0,46.1538461538,28.5714285714
090130187,-99.1108333385,19.2022222308,Ciudad de México,Xochimilco,Rancho el Cedro,,,,-1,8.2191780822,Alto,9.7788836401,3.7037037037,14.5454545455,100,0,7.1428571429,21.9178082192,21.4285714286
090130190,-99.0541666769,19.2219444462,Ciudad de México,Xochimilco,Tixculco,,,,-1,20,Alto,15.8470059235,0,11.8181818182,100,50,0,20,100
090130191,-99.0848507231,19.2138000462,Ciudad de México,Xochimilco,Tecoexcontitla,,,,-1,0,Medio,6.8720985694,7.5,11.7272727273,85,0,7.5,6.7307692308,20
090130195,-99.051239,19.2224108615,Ciudad de México,Xochimilco,Paraje Tepanyecac,,,,-1,16.6666666667,Alto,13.5024288647,0,19.3636363636,100,0,0,33.3333333333,50
090130196,-99.1252777846,19.2280555538,Ciudad de México,Xochimilco,Tepepula,,,,-1,18.1818181818,Alto,20.0810878158,22.2222222222,21.8181818182,100,44.4444444444,11.1111111111,27.2727272727,100
090130197,-99.0747222154,19.2627777692,Ciudad de México,Xochimilco,La Angostura,,,,-1,17.8571428571,Alto,16.7254230838,28.5714285714,21.3636363636,100,0,0,25,85.7142857143
090130198,-99.1100020462,19.1991649692,Ciudad de México,Xochimilco,Calle de Sinatlixpa,,,,-1,10,Alto,10.0797620253,7.6923076923,13.2727272727,100,0,0,32.5,15.3846153846
090130201,-99.0755555538,19.2269444462,Ciudad de México,Xochimilco,Cerro Cuatizi,,,,-1,0,Alto,11.9310734409,0,10.9090909091,100,25,0,13.7931034483,100
090130202,-99.0890175077,19.2182443231,Ciudad de México,Xochimilco,Paraje Zacapa,,,,-1,7.476635514,Alto,11.4183213358,5.4054054054,14.0909090909,100,2.7027027027,5.4054054054,16.6666666667,64.8648648649
090130203,-99.0801284308,19.2149111538,Ciudad de México,Xochimilco,Santa Catarina (Piedra Blanca),,,,-1,12.5,Alto,8.9681816316,0,8,100,0,10,21.7391304348,30
090130204,-99.0741666615,19.215,Ciudad de México,Xochimilco,Huepaltepec,,,,-1,5.2631578947,Alto,11.3044174354,0,12.8181818182,100,14.2857142857,0,26.3157894737,57.1428571429
090130205,-99.1078256615,19.2178621538,Ciudad de México,Xochimilco,Tecuanatla (Arenal Papanco),,,,-1,0,Bajo,5.4201465688,0,11.5454545455,0,0,0,23.0769230769,25
090130206,-99.1081845077,19.2115779077,Ciudad de México,Xochimilco,Inopilco,,,,-1,0,Bajo,5.2516563419,0,9.0909090909,100,0,0,11.1111111111,0
090130208,-99.105,19.2072222154,Ciudad de México,Xochimilco,Rancho los Cedros,,,,-1,0,Alto,15.3625062111,71.4285714286,21.4545454545,100,0,0,0,85.7142857143
090130209,-99.1061111077,19.2047222308,Ciudad de México,Xochimilco,Cerro Tepeclite,,,,-1,20,Alto,15.8210489492,0,18.1818181818,100,0,33.3333333333,22.2222222222,83.3333333333
090130210,-99.1234625692,19.1918567231,Ciudad de México,Xochimilco,Zapatitla,,,,-1,20,Medio,7.4106872016,0,10.9090909091,0,0,0,20,33.3333333333
090130213,-99.1377319538,19.2314449077,Ciudad de México,Xochimilco,Nauhtepan (Tepantiagua),,,,-1,7.1428571429,Alto,16.9815804078,27.2727272727,17.2727272727,100,0,36.3636363636,25,100
090130214,-99.1259341385,19.2302851385,Ciudad de México,Xochimilco,Tepeyecac (El Arenal),,,,-1,3.5714285714,Alto,8.7927900094,15.7894736842,15.4545454545,72.2222222222,0,0,14.2857142857,26.3157894737
090130218,-99.1165175538,19.2206539846,Ciudad de México,Xochimilco,Paraje Ixcuicuilco,,,,-1,0,Medio,7.3245290388,0,11.7272727273,100,0,0,9.0909090909,33.3333333333
090130223,-99.0529895385,19.2392567231,Ciudad de México,Xochimilco,Avenida de las Torres,,,,-1,12.0689655172,Alto,13.2962472539,11.7647058824,20.4545454545,100,0,0,26.7857142857,47.0588235294
090130229,-99.1151290615,19.2168554462,Ciudad de México,Xochimilco,Parada del Conejo,,,,-1,0,Bajo,5.0098693834,13.0434782609,12,4.347826087,0,0,7.9365079365,21.7391304348
090130231,-99.0727710769,19.2316719692,Ciudad de México,Xochimilco,Tecanco,,,,-1,6.5217391304,Alto,13.2488167854,17.6470588235,14.5454545455,100,0,5.8823529412,40,52.9411764706
090130232,-99.0692392154,19.2328663385,Ciudad de México,Xochimilco,Atlaxco,,,,-1,12.1212121212,Alto,15.0628878971,21.0526315789,20.2727272727,100,0,10.5263157895,36.9230769231,47.3684210526
090130234,-99.0396500462,19.2443504462,Ciudad de México,Xochimilco,Barrio Nochicala,,,,-1,5.6737588652,Alto,9.1469634347,6.3829787234,11.9090909091,97.8723404255,0,2.1276595745,16.5413533835,38.2978723404
090130235,-99.0547222154,19.2338888923,Ciudad de México,Xochimilco,Ninguno,,,,-1,2.3255813953,Alto,16.231711031,3.5714285714,16.7272727273,100,71.4285714286,3.5714285714,14.2857142857,100
090130236,-99.0552777846,19.2333333385,Ciudad de México,Xochimilco,Camino Real A San Pedro,,,,-1,3.8461538462,Alto,14.3696874644,13.3333333333,15.4545454545,100,53.3333333333,6.6666666667,11.5384615385,73.3333333333
090130237,-99.1175,19.2161111077,Ciudad de México,Xochimilco,El Cedral,,,,-1,0,Muy bajo,3.4500367356,0,15.9090909091,0,0,0,0,0
090130241,-99.0912225385,19.2278079385,Ciudad de México,Xochimilco,Tiziclipa,,,,-1,20.6896551724,Alto,16.2806284174,30,21.8181818182,100,0,0,41.3793103448,40
090130242,-99.055,19.2569444462,Ciudad de México,Xochimilco,Atenco (Tlaquilpa),,,,-1,0,Alto,10.7038703688,40,15.1818181818,0,0,0,30,60
090130243,-99.0594444462,19.2569444462,Ciudad de México,Xochimilco,Axayopa,,,,-1,4.6511627907,Alto,8.5917970543,0,19.8181818182,16.6666666667,0,8.3333333333,11.9047619048,41.6666666667
090130244,-99.0563888923,19.2569444462,Ciudad de México,Xochimilco,Coapantitla,,,,-1,0,Bajo,5.882971371,25,8.5454545455,25,0,0,12.5,25
090130246,-99.0776283692,19.2237995846,Ciudad de México,Xochimilco,Rancho Francisco Villa (Tepejoyuca),,,,-1,25,Muy alto,20.5047314661,40,13.6363636364,100,60,0,33.3333333333,100
090130249,-99.0895659385,19.2665738462,Ciudad de México,Xochimilco,Chililico,,,,-1,16.6666666667,Alto,17.1722795137,33.3333333333,19.0909090909,66.6666666667,0,0,58.3333333333,66.6666666667
090130252,-99.1352759385,19.2433318308,Ciudad de México,Xochimilco,Texopantitla,,,,-1,3.2608695652,Alto,10.4770119817,10.3448275862,15.6363636364,100,0,0,14.7727272727,51.724137931
090130253,-99.1086111077,19.1927777692,Ciudad de México,Xochimilco,Oluca Dos Parajes,,,,-1,3.8461538462,Alto,12.8050155459,25,11.5454545455,100,25,0,16,75
090130255,-99.1119444462,19.2027777692,Ciudad de México,Xochimilco,Ninguno,,,,-1,6.6666666667,Alto,8.3969107567,0,8.7272727273,85.7142857143,14.2857142857,0,13.3333333333,42.8571428571
090130257,-99.1397896615,19.2359135077,Ciudad de México,Xochimilco,Los Pinos,,,,-1,4.7058823529,Alto,10.8651131789,6.25,12.3636363636,96.875,6.4516129032,0,26.8292682927,53.125
090130258,-99.1376584769,19.2360235846,Ciudad de México,Xochimilco,Temamatla,,,,-1,10.989010989,Alto,13.6477158757,3.5714285714,16.5454545455,100,7.1428571429,7.1428571429,24.4444444444,75
090130262,-99.0376884308,19.2419809231,Ciudad de México,Xochimilco,Paraje Nochicala,,,,-1,3.8461538462,Alto,9.7793623905,0,15.8181818182,100,0,0,23.0769230769,33.3333333333
090130263,-99.0446651231,19.2431035538,Ciudad de México,Xochimilco,San Juan Diego (Matlacuapa),,,,-1,16.3636363636,Alto,14.6924848994,0,15,100,12.5,0,35.1851851852,81.25
090130265,-99.1352777692,19.2497222308,Ciudad de México,Xochimilco,Paraje Moyocalco,,,,-1,0,Alto,8.5227469054,8.3333333333,14.0909090909,100,0,0,6.25,41.6666666667
090130266,-99.1416072462,19.2296234615,Ciudad de México,Xochimilco,Cuahuticotitla,,,,-1,10.2040816327,Alto,13.8290574212,0,17.5454545455,100,11.1111111111,0,20.4081632653,88.8888888889
090130267,-99.0827777692,19.2380555538,Ciudad de México,Xochimilco,Tizilingo,,,,-1,17.9104477612,Muy alto,21.5539681122,60.8695652174,27.5454545455,100,8.6956521739,17.3913043478,31.3432835821,82.6086956522
090130268,-99.0841666615,19.2372222308,Ciudad de México,Xochimilco,Alcanfores,,,,-1,3.8461538462,Alto,9.5969581965,18.75,21.6363636364,25,0,0,15.6862745098,31.25
090130269,-99.0749967538,19.2319358615,Ciudad de México,Xochimilco,Bosques de la Paz,,,,-1,0,Alto,9.3660073037,5.8823529412,12.6363636364,100,0,5.8823529412,12.7659574468,52.9411764706
090130270,-99.1319174769,19.2447036462,Ciudad de México,Xochimilco,Contlalco,,,,-1,2.2222222222,Alto,8.3248158267,6.25,19.3636363636,56.25,0,0,14.6341463415,18.75
090130271,-99.0372222154,19.2647222308,Ciudad de México,Xochimilco,Tlalmelac,,,,-1,14.2857142857,Alto,10.6524010707,20,15.6363636364,40,0,0,23.0769230769,40
090130272,-99.1117364308,19.2297544154,Ciudad de México,Xochimilco,Xometitla (Tlalitenco),,,,-1,5.4487179487,Alto,9.8346742101,5.6603773585,12.9090909091,98.1132075472,2.8301886792,0.9433962264,21.6666666667,38.679245283
090140001,-99.1611346578,19.3806424162,Ciudad de México,Benito Juárez,Benito Juárez,,,,-1,0.5577128561,Muy bajo,1.5038952495,0.2400049549,5.4545454545,0.092503402,0.0190297854,1.3140921675,3.2036978546,3.4421369462
090150001,-99.1490557563,19.4313734294,Ciudad de México,Cuauhtémoc,Cuauhtémoc,,,,-1,1.4206873022,Muy bajo,2.521126808,0.311185562,7.0909090909,0.2427829448,0.0709283804,1.7919655752,6.8351108535,8.1003976202
090160001,-99.2045669148,19.4280623649,Ciudad de México,Miguel Hidalgo,Miguel Hidalgo,,,,-1,1.1998751372,Muy bajo,2.1274405237,0.4678733032,6.3636363636,0.7565571272,0.0321293743,1.0973766118,6.3766364698,4.9799911072
090170001,-99.0931057954,19.4304954545,Ciudad de México,Venustiano Carranza,Venustiano Carranza,,,,-1,1.5662833389,Muy bajo,2.7801860715,0.4423531823,8,0.1905875178,0.0489840042,0.9611985523,7.7881669341,7.8192071374
120020001,-98.9336157102,17.7140515339,Guerrero,Ahuacuotzingo,Ahuacuotzingo,,,,-1,20.9939619136,Alto,10.9920955194,11.7177097204,14.2727272727,4.7872340426,2.7925531915,3.9735099338,43.7174016121,27.8145695364
120020002,-99.0261111077,17.7677777846,Guerrero,Ahuacuotzingo,Acateyahualco,,,,-1,25.5681818182,Alto,12.2726239527,9.375,12.7272727273,4.6875,3.1746031746,17.1875,54.3352601156,25
120020003,-99.0036111077,17.7280555538,Guerrero,Ahuacuotzingo,Agua Zarca,,,,-1,35.2941176471,Alto,15.6688675883,7.3170731707,18.5454545455,1.2195121951,2.4390243902,31.3253012048,55.5084745763,36.1445783133
120020004,-99.0744444462,17.7816666769,Guerrero,Ahuacuotzingo,Ajuatetla,,,,-1,27.9202279202,Alto,12.762754892,12,14.1818181818,4,5.6,10.4,51.724137931,28.8
120020005,-98.8519444462,17.6708333231,Guerrero,Ahuacuotzingo,Alpuyecancingo de las Montañas,,,,-1,43.8647342995,Alto,19.5402256926,19.9460916442,20.5454545455,4.3126684636,6.5040650407,25.2688172043,62.2458857696,63.7096774194
120020006,-98.9200130308,17.7549607846,Guerrero,Ahuacuotzingo,Chachayaco,,,,-1,30.4347826087,Muy alto,27.6019961194,14.2857142857,21.0909090909,0,100,100,60.8695652174,100
120020008,-98.9230555538,17.7961111077,Guerrero,Ahuacuotzingo,Lagunillas,,,,-1,35.652173913,Muy alto,24.565934413,34.375,18.4545454545,93.75,15.625,96.875,64.347826087,50
120020009,-99.0344444462,17.7644444462,Guerrero,Ahuacuotzingo,Mazapa,,,,-1,27.027027027,Alto,12.3721922848,3.8461538462,16.8181818182,3.8461538462,0,0,44.5945945946,46.1538461538
120020010,-98.9813888923,17.8305555538,Guerrero,Ahuacuotzingo,Mitlancingo,,,,-1,47.2972972973,Muy alto,22.7076796799,17.6470588235,20.4545454545,99.3464052288,1.9607843137,47.4025974026,69.387755102,46.7532467532
120020011,-99.0266666769,17.6736111077,Guerrero,Ahuacuotzingo,Oxtotitlán,,,,-1,46.7654986523,Alto,19.535672497,14.4486692015,19.0909090909,12.8301886792,4.9242424242,44.9056603774,68.1940700809,39.6226415094
120020012,-98.9678617231,17.7151871231,Guerrero,Ahuacuotzingo,Ostoyahualco,,,,-1,34.8837209302,Alto,16.2442750146,13.6363636364,25.6363636364,8.1818181818,0.9090909091,2.7272727273,48.3116883117,43.6363636364
120020013,-98.8975,17.6605555538,Guerrero,Ahuacuotzingo,Pochutla,,,,-1,39.7225725095,Alto,14.1794249908,3.8194444444,14.3636363636,2.0761245675,10.0346020761,12.4567474048,60.1016518424,23.1833910035
120020014,-98.9493435692,17.8288455385,Guerrero,Ahuacuotzingo,Rincón de Cozahuapa,,,,-1,32.0334261838,Muy alto,23.3561328598,35.2941176471,18.6363636364,99.1596638655,4.2016806723,79.8319327731,64.9025069638,54.6218487395
120020015,-98.9480555538,17.7305555538,Guerrero,Ahuacuotzingo,Rincón Peñitas,,,,-1,37.3493975904,Alto,18.1708421372,9.0909090909,19.5454545455,9.0909090909,16.6666666667,42.4242424242,61.4457831325,37.8787878788
120020016,-99.0672222154,17.8208333231,Guerrero,Ahuacuotzingo,San Juan (Las Joyas),,,,-1,26.1811023622,Alto,14.77419991,35.2201257862,16.5454545455,6.2893081761,0,25,49.209486166,30.625
120020017,-98.8859749538,17.6269300615,Guerrero,Ahuacuotzingo,San Miguel Ahuelican,,,,-1,82.7160493827,Muy alto,37.8889989831,13.7931034483,31.1818181818,100,44.8275862069,100,97.5308641975,100
120020018,-99.0911111077,17.75,Guerrero,Ahuacuotzingo,Santa Catarina (Santa Catarina las Joyas),,,,-1,42.8571428571,Muy alto,23.6590503102,35.9712230216,24.5454545455,39.5683453237,8.6330935252,48.9208633094,63.0727762803,68.345323741
120020019,-98.8525002923,17.7791682769,Guerrero,Ahuacuotzingo,Tecaxitla,,,,-1,25,Muy alto,27.6049610686,33.3333333333,20.0909090909,100,50,100,56.25,100
120020020,-99.0442333385,17.6751722154,Guerrero,Ahuacuotzingo,Tecoanapa,,,,-1,30.5687203791,Alto,14.2295795484,4.2682926829,17.2727272727,17.6829268293,1.2195121951,18.2926829268,54.1766109785,32.9268292683
120020021,-98.9497222154,17.7877111077,Guerrero,Ahuacuotzingo,Tecolcuautla,,,,-1,37.9918588874,Alto,19.6041594679,24.2152466368,14.5454545455,95.9641255605,4.0358744395,48.6725663717,62.619372442,32.7433628319
120020022,-98.87,17.8155555538,Guerrero,Ahuacuotzingo,Tecozajca (Tepehuaje),,,,-1,28.5714285714,Muy alto,23.5238679557,9.2592592593,22,100,5.0632911392,87.7300613497,59.6226415094,77.9141104294
120020023,-98.9946638923,17.7628611077,Guerrero,Ahuacuotzingo,Tenanzintitlán (La Hacienda),,,,-1,26.0563380282,Alto,13.4837352577,13.4615384615,13.3636363636,30.7692307692,1.9230769231,13.4615384615,51.7730496454,36.5384615385
120020024,-99.0247027846,17.8069083385,Guerrero,Ahuacuotzingo,Tepetlatipa,,,,-1,30.6709265176,Alto,18.6711033561,26.8041237113,20,98.9583333333,2.0833333333,23.4693877551,49.8392282958,43.8775510204
120020025,-98.9736111077,17.7672222154,Guerrero,Ahuacuotzingo,Tepoxtlán,,,,-1,16.3701067616,Alto,11.3538156547,5.6818181818,14.1818181818,9.0909090909,2.2988505747,4.5454545455,47.1223021583,44.3181818182
120020026,-99.0408333231,17.7086111077,Guerrero,Ahuacuotzingo,Tlalcomulco,,,,-1,48.0712166172,Muy alto,21.3175357907,31.8965517241,23.4545454545,6.0344827586,2.5862068966,44.4444444444,66.369047619,41.8803418803
120020027,-98.92,17.8625,Guerrero,Ahuacuotzingo,Tlaquilcingo,,,,-1,31.5068493151,Muy alto,20.7916203138,19.0476190476,15.6363636364,100,0,88.3720930233,51.3698630137,53.488372093
120020028,-99.0207676154,17.7714780615,Guerrero,Ahuacuotzingo,Totolzintla,,,,-1,24.3243243243,Alto,14.1869761512,13.3333333333,11.0909090909,73.3333333333,0,20,59.4594594595,26.6666666667
120020029,-99.0163361077,17.7164361077,Guerrero,Ahuacuotzingo,Trapiche Viejo,,,,-1,30.6620209059,Alto,13.3477916849,5.2631578947,16.4545454545,9.4736842105,7.3684210526,23.9583333333,42.4028268551,29.1666666667
120020030,-98.8413888923,17.7122222154,Guerrero,Ahuacuotzingo,Xitopontla,,,,-1,56.5104166667,Muy alto,26.5736455605,13.3333333333,26.1818181818,100,9.243697479,25.6198347107,81.2010443864,78.5123966942
120020031,-98.9824861077,17.7127944462,Guerrero,Ahuacuotzingo,Xocoyolzintla,,,,-1,23.0929989551,Alto,14.9516965643,10.9848484848,20.3636363636,0.7633587786,3.4220532319,21.8045112782,58.6387434555,36.4661654135
120020033,-98.9305555538,17.6658333231,Guerrero,Ahuacuotzingo,Yupitepec,,,,-1,37.8640776699,Alto,16.2109926192,8.1081081081,18.0909090909,75.6756756757,5.4054054054,24.3243243243,48.5436893204,18.9189189189
120020034,-98.9269527846,17.8183944462,Guerrero,Ahuacuotzingo,Zompazolco,,,,-1,33.5766423358,Muy alto,23.6384298782,17.0731707317,23.4545454545,100,4.8780487805,85.3658536585,64.2335766423,48.7804878049
120020038,-98.9429509538,17.7471048769,Guerrero,Ahuacuotzingo,El Huamúchil,,,,-1,39.2857142857,Muy alto,27.0493697972,21.7391304348,25.2727272727,100,8.6956521739,95.8333333333,69.6428571429,70.8333333333
120020041,-99.013474,17.7455059231,Guerrero,Ahuacuotzingo,Yerbabuena,,,,-1,37.9746835443,Muy alto,23.2519040499,13.6363636364,25.5454545455,36.3636363636,4.5454545455,95.4545454545,55.6962025316,63.6363636364
120020050,-98.8261866308,17.7204470462,Guerrero,Ahuacuotzingo,El Carrizo,,,,-1,60.6060606061,Muy alto,32.029301793,17.3913043478,46.7272727273,100,20.8333333333,16.6666666667,72.7272727273,87.5
120020056,-98.8836226923,17.8360659692,Guerrero,Ahuacuotzingo,Las Jícaras (El Mirador),,,,-1,47.7272727273,Muy alto,23.2252634917,6.25,11.6363636364,100,12.5,100,70.4545454545,50
120020058,-98.8655664615,17.7980128615,Guerrero,Ahuacuotzingo,El Naranjo,,,,-1,46.1538461538,Muy alto,33.9514573637,11.1111111111,24.6363636364,100,100,100,80.7692307692,100
120020062,-98.9109510308,17.8296436923,Guerrero,Ahuacuotzingo,El Planchado,,,,-1,71.4285714286,Muy alto,34.124608921,0,11.0909090909,100,100,100,100,100
120020069,-98.7929208923,17.7302183692,Guerrero,Ahuacuotzingo,Expitetzintla,,,,-1,43.4782608696,Muy alto,23.7862114967,14.8148148148,25.6363636364,100,11.1111111111,11.1111111111,70.5882352941,77.7777777778
120020070,-98.9206331231,17.7065212923,Guerrero,Ahuacuotzingo,Tierra Blanca,,,,-1,57.1428571429,Muy alto,32.2561507148,33.3333333333,8,100,100,66.6666666667,100,100
120020072,-98.8117112615,17.6866559385,Guerrero,Ahuacuotzingo,Tlalistaquilla,,,,-1,36.8421052632,Muy alto,23.3157083168,0,18.9090909091,83.3333333333,16.6666666667,100,50,83.3333333333
120020075,-98.8183555538,17.6923555538,Guerrero,Ahuacuotzingo,Zacualpa,,,,-1,41.7989417989,Muy alto,20.5756680279,13.4615384615,25.9090909091,0,5.8823529412,0,72.4867724868,80.7692307692
120020076,-98.8623487231,17.7133584923,Guerrero,Ahuacuotzingo,Xumiltepec,,,,-1,51.4492753623,Muy alto,29.0365356504,15.5555555556,30.7272727273,100,44.1860465116,22.2222222222,74.6376811594,93.3333333333
120020077,-98.8677886308,17.6999639846,Guerrero,Ahuacuotzingo,Buena Vista,,,,-1,48,Alto,19.2909722894,8.3333333333,19.5454545455,8.3333333333,8.3333333333,16.6666666667,76,50
120020079,-98.8766780154,17.7996795231,Guerrero,Ahuacuotzingo,Lambedero,,,,-1,25.7142857143,Muy alto,26.1857752128,50,23.5454545455,100,8.3333333333,100,51.4285714286,83.3333333333
120020080,-98.8152956615,17.7044473231,Guerrero,Ahuacuotzingo,Mazatlán (San José),,,,-1,61.2903225806,Muy alto,32.6895677522,37.5,36.3636363636,0,75,25,83.8709677419,100
120020081,-99.0384173231,17.7431104615,Guerrero,Ahuacuotzingo,Motuapa,,,,-1,7.1428571429,Alto,11.8851160944,11.1111111111,19.3636363636,88.8888888889,11.1111111111,33.3333333333,17.8571428571,11.1111111111
120020082,-98.8813853692,17.7855597077,Guerrero,Ahuacuotzingo,Los Sauces,,,,-1,25,Muy alto,33.6022348077,20,31.8181818182,100,100,100,75,100
120020083,-98.8529328923,17.7028101231,Guerrero,Ahuacuotzingo,Tlalchichilco,,,,-1,71.3114754098,Muy alto,36.6594645825,52.7777777778,32.7272727273,100,69.4444444444,55.5555555556,83.606557377,86.1111111111
120020085,-98.8436093385,17.7010932462,Guerrero,Ahuacuotzingo,Zapotitlán,,,,-1,81.25,Muy alto,45.5591806722,100,33,100,100,100,96.875,100
120020086,-98.8271106308,17.7110298923,Guerrero,Ahuacuotzingo,Zonteconcuilco,,,,-1,76.4705882353,Muy alto,38.6047563732,54.5454545455,29.9090909091,100,72.7272727273,72.7272727273,94.1176470588,90.9090909091
120020094,-98.9014551385,17.8456195385,Guerrero,Ahuacuotzingo,Los Paredones (Joyas de Yolocingo),,,,-1,23.8095238095,Muy alto,23.5814519754,50,21.6363636364,100,0,83.3333333333,61.9047619048,50
120020096,-98.7747664,17.7219618308,Guerrero,Ahuacuotzingo,Santa Rosa,,,,-1,56.0606060606,Muy alto,27.0494506182,11.5384615385,23.6363636364,0,23.0769230769,100,80.303030303,73.0769230769
120020100,-98.9464074,17.7526922,Guerrero,Ahuacuotzingo,Azaucla,,,,-1,45,Muy alto,36.4277091236,75,22.7272727273,100,100,100,75,100
120020107,-98.8162948154,17.6811929846,Guerrero,Ahuacuotzingo,Loma Bonita,,,,-1,47.4576271186,Muy alto,24.5317829033,36.3636363636,18.6363636364,4.5454545455,13.6363636364,95.4545454545,55.9322033898,86.3636363636
120020115,-99.0503665538,17.7069987385,Guerrero,Ahuacuotzingo,Tezoquite (Tierra Prieta),,,,-1,55.5555555556,Muy alto,28.6917371213,0,9.0909090909,100,66.6666666667,100,77.7777777778,100
120020122,-98.9313889231,17.7056958308,Guerrero,Ahuacuotzingo,Castocapa,,,,-1,61.9047619048,Muy alto,30.4287373536,22.2222222222,32.0909090909,44.4444444444,33.3333333333,77.7777777778,85.7142857143,55.5555555556
120020130,-98.7981621692,17.7208847846,Guerrero,Ahuacuotzingo,Tlalxocotitlán,,,,-1,45.4545454545,Muy alto,25.9191541017,18.1818181818,27.0909090909,100,31.8181818182,0,74.025974026,90.9090909091
120020147,-98.806198,17.7080545692,Guerrero,Ahuacuotzingo,Ocotepec,,,,-1,77.9069767442,Muy alto,31.4114157854,15.1515151515,25.9090909091,0,6.0606060606,100,93.023255814,100
120020148,-98.7591644154,17.7022232769,Guerrero,Ahuacuotzingo,San Andrés,,,,-1,47.8260869565,Muy alto,22.2150390185,12,27.9090909091,0,4,0,75,92
120020149,-98.7769854769,17.6886666,Guerrero,Ahuacuotzingo,San Francisco,,,,-1,46.1538461538,Muy alto,23.72055653,20,14.3636363636,20,10,100,64,90
120020151,-98.9220559077,17.8593410308,Guerrero,Ahuacuotzingo,Vista Hermosa Tlaquilcingo,,,,-1,21.7391304348,Alto,19.1019675991,0,16.5454545455,100,12.5,100,47.8260869565,37.5
120020176,-98.7769518923,17.6982950769,Guerrero,Ahuacuotzingo,Mazatlán,,,,-1,36.3636363636,Muy alto,36.9496523641,75,40.2727272727,25,100,100,63.6363636364,100
120020182,-98.8349960769,17.7802820308,Guerrero,Ahuacuotzingo,Naranjastitlán,,,,-1,16.6666666667,Muy alto,29.1803267394,100,12.0909090909,100,100,100,33.3333333333,100
120020183,-98.8491628923,17.7888904462,Guerrero,Ahuacuotzingo,El Organal,,,,-1,38.4615384615,Muy alto,32.8104739588,33.3333333333,24.2727272727,100,100,100,61.5384615385,100
120020185,-98.8552792,17.7225008308,Guerrero,Ahuacuotzingo,Rancho Escondido,,,,-1,62.5,Muy alto,44.013320654,85.7142857143,49.0909090909,100,85.7142857143,100,70.8333333333,100
120040001,-98.3843187237,17.4614887359,Guerrero,Alcozauca de Guerrero,Alcozauca de Guerrero,,,,-1,26.4781491003,Alto,12.7444575751,16.5103189493,12,19.5075757576,2.626641651,29.0145985401,41.1764705882,31.204379562
120040002,-98.3611111077,17.3838888923,Guerrero,Alcozauca de Guerrero,Acametla de Bravo,,,,-1,54.0909090909,Muy alto,24.8094675357,25,16,90.1408450704,9.8591549296,66.6666666667,78.1818181818,54.1666666667
120040003,-98.45,17.4905555538,Guerrero,Alcozauca de Guerrero,Ahuejutla,,,,-1,42.2222222222,Muy alto,25.6700938192,14.5454545455,28.4545454545,72.2222222222,9.0909090909,67.2727272727,67.0391061453,74.5454545455
120040004,-98.3547222154,17.4202777846,Guerrero,Alcozauca de Guerrero,Almolonga de Ocampo (Almolonga),,,,-1,62.1026894866,Muy alto,26.1425031318,16.0839160839,18,20.979020979,3.5211267606,90.9090909091,90.3465346535,65.7342657343
120040005,-98.3549898,17.3630389538,Guerrero,Alcozauca de Guerrero,Altamira,,,,-1,35.7142857143,Muy alto,22.2630948872,11.1111111111,15.4545454545,100,22.2222222222,90,64.2857142857,40
120040006,-98.3833333231,17.4991666769,Guerrero,Alcozauca de Guerrero,Amapilca,,,,-1,40.4624277457,Alto,16.4966894472,6.5217391304,17.6363636364,4.347826087,0,36.9565217391,62.2093023256,32.6086956522
120040007,-98.3127777846,17.3355555538,Guerrero,Alcozauca de Guerrero,Buena Vista,,,,-1,59.4936708861,Muy alto,28.9596751552,29.6296296296,17.4545454545,94.4444444444,12.962962963,92.5925925926,77.8481012658,87.037037037
120040008,-98.3824302923,17.4323416,Guerrero,Alcozauca de Guerrero,Cerro Azul,,,,-1,58.4269662921,Muy alto,28.4098812286,16.6666666667,22.9090909091,96.6666666667,0,96.6666666667,86.2068965517,60
120040009,-98.3436111077,17.4822222154,Guerrero,Alcozauca de Guerrero,Cuyuxtlahuac,,,,-1,51.0869565217,Muy alto,23.4876548333,23.4309623431,16.7272727273,100,2.9535864979,48.132780083,74.1403026135,57.2614107884
120040010,-98.3747222154,17.3988888923,Guerrero,Alcozauca de Guerrero,Chimaltepec,,,,-1,62.389380531,Muy alto,26.1261540118,20.4819277108,16,91.6666666667,2.4390243902,82.1428571429,83.0357142857,53.5714285714
120040011,-98.3425,17.3694444462,Guerrero,Alcozauca de Guerrero,Ixcuinatoyac,,,,-1,41.6539050536,Alto,20.2484496772,20.3539823009,14.2727272727,91.1504424779,2.6666666667,52.8634361233,61.9496855346,45.3744493392
120040012,-98.4605555538,17.3541666769,Guerrero,Alcozauca de Guerrero,Lomazóyatl (Lomazoya),,,,-1,59.4202898551,Muy alto,23.7795978571,21.7877094972,15.6363636364,100,6.7415730337,55,74.5916515426,42.2222222222
120040013,-98.4475448462,17.3589454308,Guerrero,Alcozauca de Guerrero,Melchor Ocampo,,,,-1,60.071942446,Muy alto,27.4663077528,18,22.8181818182,99.3243243243,7.3333333333,90.7284768212,70.9386281588,57.6158940397
120040014,-98.4915252769,17.3741446154,Guerrero,Alcozauca de Guerrero,Petlacalancingo,,,,-1,41.1255411255,Alto,18.9384304049,5.6338028169,19.6363636364,97.1830985915,1.4084507042,39.4366197183,57.1428571429,28.1690140845
120040015,-98.4552777846,17.4372222154,Guerrero,Alcozauca de Guerrero,San José Lagunas (Capulín),,,,-1,40.4411764706,Muy alto,20.725962748,8.7301587302,17.7272727273,99.2063492063,12.9032258065,42.8571428571,56.3275434243,57.9365079365
120040016,-98.2369444462,17.2436111077,Guerrero,Alcozauca de Guerrero,San Miguel el Grande,,,,-1,89.3772893773,Muy alto,35.7829380402,39.6551724138,23.9090909091,100,9.3023255814,91.4285714286,98.8950276243,91.4285714286
120040017,-98.3375,17.375,Guerrero,Alcozauca de Guerrero,Tlahuapa,,,,-1,42.8341384863,Alto,19.4909405216,31.7535545024,12,79.0476190476,2.3923444976,48.8262910798,62.4796084829,35.2112676056
120040018,-98.4508333231,17.3825,Guerrero,Alcozauca de Guerrero,Xochapa,,,,-1,41.632231405,Alto,19.1883975775,14.7692307692,15.8181818182,100,0.9202453988,30.981595092,60.9936575053,41.717791411
120040019,-98.4125000154,17.5022213846,Guerrero,Alcozauca de Guerrero,Xonacatlán,,,,-1,47.3794549266,Alto,19.7903160559,14.2857142857,12.8181818182,57.1428571429,3.007518797,58.2089552239,64.2553191489,47.0149253731
120040020,-98.3641666769,17.3225,Guerrero,Alcozauca de Guerrero,San Vicente Zoyatlán,,,,-1,61.407249467,Muy alto,27.7289278211,37.3737373737,19.3636363636,26.0869565217,8.7837837838,90.0662251656,81.1764705882,76.821192053
120040021,-98.3805601077,17.3053234923,Guerrero,Alcozauca de Guerrero,Zaragoza,,,,-1,72.972972973,Muy alto,41.5488308655,42.8571428571,61.3636363636,66.6666666667,0,100,83.3333333333,100
120040022,-98.3378953846,17.3148857846,Guerrero,Alcozauca de Guerrero,San Martín,,,,-1,70.0934579439,Muy alto,34.5768533035,33.3333333333,29.8181818182,100,3.8461538462,100,89.7196261682,96.2962962963
120040023,-98.4402741692,17.3278736615,Guerrero,Alcozauca de Guerrero,El Gitano,,,,-1,55.8823529412,Muy alto,25.0366536438,0,21.3636363636,70,10,80,75,60
120040024,-98.3713790308,17.3380408,Guerrero,Alcozauca de Guerrero,Cruz Verde,,,,-1,62.8571428571,Muy alto,28.8494556924,18.1818181818,15.5454545455,100,0,100,80,100
120040025,-98.3358333231,17.4636111077,Guerrero,Alcozauca de Guerrero,Pueblo de Dios,,,,-1,52.1978021978,Muy alto,23.3356366887,23.3333333333,21.5454545455,35,3.3333333333,55,73.4806629834,56.6666666667
120040029,-98.2211809538,17.2289795231,Guerrero,Alcozauca de Guerrero,Colonia Loma Bonita San Miguel el Grande,,,,-1,96,Muy alto,36.2074432138,22.2222222222,23.9090909091,100,16.6666666667,100,100,88.8888888889
120040038,-98.3492309385,17.3215139077,Guerrero,Alcozauca de Guerrero,Colonia el Arenal,,,,-1,81.8181818182,Muy alto,37.0278322772,16.6666666667,34.8181818182,100,33.3333333333,100,81.8181818182,100
120040039,-98.3902777846,17.3008333385,Guerrero,Alcozauca de Guerrero,Nuevo Zaragoza,,,,-1,63.8888888889,Muy alto,43.8622090207,100,39.3636363636,100,96.2962962963,92.5925925926,84.5070422535,100
120050001,-98.5103373163,17.6723117545,Guerrero,Alpoyeca,Alpoyeca,,,,-1,18.5091063109,Alto,10.5691996748,18.8775510204,11.2727272727,21.2083847102,3.3333333333,6.0975609756,42.7692307692,21.0975609756
120050002,-98.5158333231,17.6186111077,Guerrero,Alpoyeca,Ixcateopan,,,,-1,20.0617283951,Alto,10.4958980632,10.2803738318,11.7272727273,24.2990654206,3.4375,8.024691358,44.8093220339,16.975308642
120050003,-98.5258333231,17.6733333231,Guerrero,Alpoyeca,San José Buenavista,,,,-1,23.0769230769,Alto,11.2837045188,12.7118644068,11.4545454545,55.2742616034,2.1097046414,4.641350211,42.1824104235,18.1434599156
